Date,Pluvio_du_jour,Cumul_du_mois,Cumul_moy_du_mois,Cumul_periode,Cumul_moy_periode,Cumul_mois_precedent,Cumul_periode_precedente,nom_ar,nom_fr,gouvernorat_ar,gouvernorat_fr,region_ar,region_fr,Latitude,Longitude,Altitude
2025-11-25,0,34.6,45.78666673815912,59.1,111.81555562582285,9,48.6,بوسالم,BOUSALEM DRE,جندوبة,Jendouba,الشمال الغربي,Nord-Ouest,36.599846,8.968515,0.00
2025-11-25,0.8,29.6,45.510000077486026,105.69999999999999,115.16800003021962,15.899999999999999,75.19999999999999,جندوبة,JENDOUBA,جندوبة,Jendouba,الشمال الغربي,Nord-Ouest,36.499091,8.794007,0.00
2025-11-25,0,0,7.592857174397934,1,23.87225918032452,0,30.7,رمادة,REMADA SM,تطاوين,Tataouine,الجنوب الشرقي,Sud-Est,32.315391,10.403298,0.00
2025-11-25,0,7,14.258139550685883,12,31.59714091592751,0,40.199999999999996,غمراسن,"GHOMRASSEN DELEG,",تطاوين,Tataouine,الجنوب الشرقي,Sud-Est,32.065988,10.347224,0.00
2025-11-25,0,0,12.316490513404503,9,32.3885810028781,0,72.6,تطاوين,TATAOUINE SM,تطاوين,Tataouine,الجنوب الشرقي,Sud-Est,32.927392,10.451446,0.00
2025-11-25,0,20,29.634000088721514,47.5,87.63469390319622,4,63.5,جربة حومة السوق,JERBA EL MAY SM,مدنين,Médenine,الجنوب الشرقي,Sud-Est,32.799485,10.887131,0.00
2025-11-25,0,2.9,33.3224488680764,60.5,87.16271261086838,0,31,جرجيس,ZARZIS VILLE SE 2,مدنين,Médenine,الجنوب الشرقي,Sud-Est,32.497974,11.117350,0.00
2025-11-25,0,0.8999999999999999,26.814285726267467,36.9,65.78626879827836,0,33.5,بن قردان,BEN GUERDANE 1 SM,مدنين,Médenine,الجنوب الشرقي,Sud-Est,32.160484,10.770229,0.00
2025-11-25,0,3,21.300000068254594,13.5,52.958536502064746,0,42.8,بني خداش,BENI KHEDECHE,مدنين,Médenine,الجنوب الشرقي,Sud-Est,32.245991,10.203218,0.00
2025-11-25,0,14.8,16.955999945402144,23.4,53.524000243246554,0,60.599999999999994,مدنين,MEDENINE 1 SM,مدنين,Médenine,الجنوب الشرقي,Sud-Est,32.335986,10.500219,0.00
2025-11-25,0,15,22.157142834395778,28,55.6651020967717,0,56,مطماطة,MATMATA DELEGATION,قابس,Gabès,الجنوب الشرقي,Sud-Est,32.542987,9.987223,0.00
2025-11-25,0,2,20.382051239793114,13,63.602564042004246,0,128,المطوية,METOUIA SM,قابس,Gabès,الجنوب الشرقي,Sud-Est,32.957894,10.036720,0.00
2025-11-25,0,0,10.212500013783576,14,45.902499973587666,0,46.5,الحامة,EL HAMMA PV,قابس,Gabès,الجنوب الشرقي,Sud-Est,32.844495,9.816229,0.00
2025-11-25,0,1.5,22.302040843179036,15.5,83.4769384850531,0,81.5,قابس,GABES SM,قابس,Gabès,الجنوب الشرقي,Sud-Est,32.857991,10.108727,0.00
2025-11-25,0,8.5,7.482499976456165,14.5,22.7305807075659,0,44.8,دوز,DOUZ CRDA SM,قبلي,Kébili,الجنوب الغربي,Sud-Ouest,32.461996,9.024224,0.00
2025-11-25,0,1,7.867499973252414,9,20.446605712025242,0,0,الفوار,EL FAOUR DOUZ,قبلي,Kébili,الجنوب الغربي,Sud-Ouest,32.370194,8.668720,0.00
2025-11-25,0,0,9.160465135823848,1,25.563689255610452,0,42,قبلي,KEBILI SE,قبلي,Kébili,الجنوب الغربي,Sud-Ouest,32.704992,8.979226,0.00
2025-11-25,0,3.5,11.968085119064819,20.5,27.201341364811846,0,34.5,نفطة,NEFTA,توزر,Tozeur,الجنوب الغربي,Sud-Ouest,32.859794,7.907325,0.00
2025-11-25,0,4,11.30888894399007,29,24.52536239504167,0,34.5,دقاش,DEGACHE MUNICIPALITE,توزر,Tozeur,الجنوب الغربي,Sud-Ouest,32.983992,8.239419,0.00
2025-11-25,0,4.5,14.760000093777974,68.5,30.548142733837864,2.5,53,تمغزة,TAMEGHZA.GN,توزر,Tozeur,الجنوب الغربي,Sud-Ouest,34.379992,7.945848,0.00
2025-11-25,0,3.5,10.916000046283004,12,27.424000004380936,0,39,توزر,TOZEUR SM,توزر,Tozeur,الجنوب الغربي,Sud-Ouest,32.925131,8.097222,0.00
2025-11-25,0,3,13.822916609700767,36,41.93102849888159,43.5,70.3,أم العرائس,SIDI AIECH,قفصة,Gafsa,الجنوب الغربي,Sud-Ouest,34.487989,8.295220,0.00
2025-11-25,0,2,14.03913041042245,28,78.02588951634792,22,116,سيدي يعيش,REDEYEF  SM,قفصة,Gafsa,الجنوب الغربي,Sud-Ouest,34.710293,8.782128,0.00
2025-11-25,0,0,18.042857154849028,31,42.38424252244519,1,68.5,الرديف,MOULARES SM,قفصة,Gafsa,الجنوب الغربي,Sud-Ouest,34.361991,8.169228,0.00
2025-11-25,0,3,13.82173913101787,21,31.9140096620625,8,58,المنلوي,METLAOUI SM,قفصة,Gafsa,الجنوب الغربي,Sud-Ouest,34.316991,8.421221,0.00
2025-11-25,0,1,16.40000005163576,19,62.06956518490031,16,79.5,السند,ESSNED,قفصة,Gafsa,الجنوب الغربي,Sud-Ouest,34.546493,9.258217,0.00
2025-11-25,0,1,13.858695639864258,69,43.81752996857964,30,87,القطار,EL GUETAR,قفصة,Gafsa,الجنوب الغربي,Sud-Ouest,34.334994,8.925215,0.00
2025-11-25,0,3,17.08600006580353,21.2,50.449999999702,15,48,قفصة,GAFSA 1 SM,قفصة,Gafsa,الجنوب الغربي,Sud-Ouest,34.424999,8.799228,0.00
2025-11-25,0,4,26.45886526040152,16,96.72657058085721,11,192,الحنشة,HANCHA,صفاقس,Sfax,الوسط الشرقي,Centre-Est,35.122934,10.745022,0.00
2025-11-25,0,4,16.349999984502794,19,77.48800006985667,9,134.5,منزل شاكر,MENZEL CHAKER,صفاقس,Sfax,الوسط الشرقي,Centre-Est,34.556840,10.313026,0.00
2025-11-25,0,0,23.346938775510203,28,87.17942176870748,19.5,136.5,قرقنة,KERKENEH MELLITTA,صفاقس,Sfax,الوسط الشرقي,Centre-Est,34.642780,11.029420,0.00
2025-11-25,0,18,15.628888911339976,49.5,69.3293720058485,22.5,160.6,الغريبة,EL GHRAIBA,صفاقس,Sfax,الوسط الشرقي,Centre-Est,34.499686,10.221215,0.00
2025-11-25,0,5,14.551999994516374,42,71.15400003939865,25,173,بير علي بن خليفة,BIR ALI BEN KHELIFA,صفاقس,Sfax,الوسط الشرقي,Centre-Est,34.737292,10.095218,0.00
2025-11-25,0,7,17.565999994277952,67.5,73.50828579347962,46,180.5,عقارب,AGAREB DELEGATION,صفاقس,Sfax,الوسط الشرقي,Centre-Est,34.740884,10.533074,0.00
2025-11-25,0,6,21.090000054836274,41,86.76199987694623,29.5,132.1,صفاقس,SFAX MAOU SM,صفاقس,Sfax,الوسط الشرقي,Centre-Est,34.716489,10.734221,0.00
2025-11-25,0,1.5,31.779166597562536,25.2,108.73652471588754,31,177.7,الـــجم,EL JEM SM,المهدية,Mahdia,الوسط الشرقي,Centre-Est,35.296183,10.709476,0.00
2025-11-25,0,3,22.070833294807624,40,89.38460228085452,17,138,السواسي,SOUASSI,المهدية,Mahdia,الوسط الشرقي,Centre-Est,35.348563,10.544329,0.00
2025-11-25,0,6,40.29565222496572,33,133.2040097585335,11.5,234.5,الشابة,CHEBBA MUNICIPALITE,المهدية,Mahdia,الوسط الشرقي,Centre-Est,35.237678,11.115822,0.00
2025-11-25,0,1,39.37400004833937,20.6,132.38600017786027,11.2,259,المهدية,MAHDIA,المهدية,Mahdia,الوسط الشرقي,Centre-Est,35.518477,11.031220,0.00
2025-11-25,0,3,44.194000003933915,22,144.8389388623955,30,212,جــمال,JEMMEL,المنستير,Monastir,الوسط الشرقي,Centre-Est,35.623779,10.763029,0.00
2025-11-25,0,1,47.96399999678134,23,145.66399986101655,17,261,طبلبة,TEBOULBA BNE VENNE I,المنستير,Monastir,الوسط الشرقي,Centre-Est,35.635477,10.779221,0.00
2025-11-25,0,1,46.23200009793043,51,147.20400025486944,15,296,المكنين,MOKNINE SM,المنستير,Monastir,الوسط الشرقي,Centre-Est,35.626034,10.716228,0.00
2025-11-25,0,1,34.68888899270031,26,128.49939420015897,18,220,المنستير,SKANES MONASTIR  SM,المنستير,Monastir,الوسط الشرقي,Centre-Est,35.749873,10.753752,0.00
2025-11-25,0,1.2,31.704255266392476,124.2,110.65510197336451,13,194.5,الكندار,KUNDAR,سوسة,Sousse,الوسط الشرقي,Centre-Est,35.949137,10.284220,0.00
2025-11-25,0,0,42.78297867768622,23,121.54233164317141,18,218,سيدي بوعلي,SIDI BOU ALI,سوسة,Sousse,الوسط الشرقي,Centre-Est,35.957682,10.479071,0.00
2025-11-25,0,2,34.61836740374565,25,118.47453230332118,22.5,168.5,مساكن,MSAKEN DELG SM,سوسة,Sousse,الوسط الشرقي,Centre-Est,35.731787,10.577622,0.00
2025-11-25,0,0,40.263265332397154,29,130.99122959141826,28,175,النفيضة,ENFIDA FORET,سوسة,Sousse,الوسط الشرقي,Centre-Est,36.133633,10.377370,0.00
2025-11-25,0,1,39.63469390023728,46,127.79795913976068,19,204,سوسة,SOUSSE PF,سوسة,Sousse,الوسط الشرقي,Centre-Est,35.828981,10.646020,0.00
2025-11-25,0,1.5,12.906249983857077,14,69.86125887756018,8,72,المزونة,MEZZOUNA DISPENSAIRE,سيدي بوزيد,Sidi Bouzid,الوسط الغربي,Centre-Ouest,34.575739,9.847000,0.00
2025-11-25,0,1,18.719148917401093,40.5,79.328743868313,0,82.3,جلمة,JELMA HER,سيدي بوزيد,Sidi Bouzid,الوسط الغربي,Centre-Ouest,35.270999,9.429225,0.00
2025-11-25,0,4,18.955555544959175,59.5,80.73872817577679,15.5,187.2,الرقاب,REGUEB SM DELEGATION,سيدي بوزيد,Sidi Bouzid,الوسط الغربي,Centre-Ouest,34.847997,9.789227,0.00
2025-11-25,0,0,15.056000000536441,9,69.91600005492568,2.5,67.5,المكناسي,MEKNASSY GR SM,سيدي بوزيد,Sidi Bouzid,الوسط الغربي,Centre-Ouest,34.919999,8.716511,0.00
2025-11-25,0,5,19.979999991953374,37,83.63559188236997,61,165.3,بير الحفي,BIR LAHFAY,سيدي بوزيد,Sidi Bouzid,الوسط الغربي,Centre-Ouest,34.931245,9.196117,0.00
2025-11-25,0,6,19.72127658794535,23,79.34968971963046,25,179,سيدي علي بن عون,SIDI ALI BEN AOUN,سيدي بوزيد,Sidi Bouzid,الوسط الغربي,Centre-Ouest,34.855194,9.142115,0.00
2025-11-25,0,2,21.465957408255722,73,97.16595740711435,67.5,164.2,سيدي بوزيد,SIDI BOUZID SM,سيدي بوزيد,Sidi Bouzid,الوسط الغربي,Centre-Ouest,34.964999,9.447219,0.00
2025-11-25,0,1,37.968000009506945,61.1,115.99000004231931,0,63.5,تالة,TALA SM,القصرين,Kasserine,الوسط الغربي,Centre-Ouest,35.578792,8.670524,0.00
2025-11-25,0,2,17.83600006058812,87,78.09400014922021,6,80,سبيطلة,SBEITLA  PAVA,القصرين,Kasserine,الوسط الغربي,Centre-Ouest,35.228696,9.123136,0.00
2025-11-25,0,3.5,25.235555455585324,102.5,103.14333324437055,1,36,سبيبة,SBIBA VILLE SM,القصرين,Kasserine,الوسط الغربي,Centre-Ouest,35.228696,9.123125,0.00
2025-11-25,0,3.3,15.917999988943336,20.1,76.19799996301532,4.9,60.9,خنقة الزازية,KHANGUET ZAZIA,القصرين,Kasserine,الوسط الغربي,Centre-Ouest,35.090993,9.124563,0.00
2025-11-25,0,4.5,20.108510602661898,125,69.60222211379391,15.5,128.5,فوسانة,FOUSSANA,القصرين,Kasserine,الوسط الغربي,Centre-Ouest,35.351991,8.634512,0.00
2025-11-25,0,7,21.785416735491406,73.5,92.86250002045801,17.5,88.5,فريانة,FERIANA SM,القصرين,Kasserine,الوسط الغربي,Centre-Ouest,34.947446,8.576477,0.00
2025-11-25,0,3.6,19.29999993503094,86.5,86.83800001814964,5.5,99.5,القصرين,KASSERINE,القصرين,Kasserine,الوسط الغربي,Centre-Ouest,35.165694,8.826228,0.00
2025-11-25,0,0.1,19.566000042855737,39.1,80.78200009718537,7.1,96.3,سد سيدي سعد,SIDI SAAD BARRAGE,القيروان,Kairouan,الوسط الغربي,Centre-Ouest,35.384036,9.694255,0.00
2025-11-25,0,0,22.021469411418146,35.5,89.07751024946874,35,86,سيدي عمر بوحجلة,SIDI AMOR BOUHAJLA,القيروان,Kairouan,الوسط الغربي,Centre-Ouest,35.395191,10.057861,0.00
2025-11-25,0,0,28.635999981462952,71,117.99400000438094,45.5,155.5,السبيخة,SBIKHA,القيروان,Kairouan,الوسط الغربي,Centre-Ouest,35.918093,10.035820,0.00
2025-11-25,0,0,30.150000100800145,75.5,127.21316497827097,20,69.5,الوسلاتية,OUSLATIA INRAT,القيروان,Kairouan,الوسط الغربي,Centre-Ouest,35.774996,9.591225,0.00
2025-11-25,0,0,26.67317077444821,37,96.56829256800619,41,137,سد نبهانة,NEBHANA BARRAGE,القيروان,Kairouan,الوسط الغربي,Centre-Ouest,35.392496,9.700119,0.00
2025-11-25,0,3,22.812195251627664,40.5,117.3926832272512,9.5,78.5,حفوز,HAFFOUZ DRE,القيروان,Kairouan,الوسط الغربي,Centre-Ouest,35.635497,9.676719,0.00
2025-11-25,0,0.6,26.908000009655943,47.4,109.49200011208654,10,120.6,القيروان,KAIROUAN SM,القيروان,Kairouan,الوسط الغربي,Centre-Ouest,35.675988,10.104229,0.00
2025-11-25,9,163.5,124.1380000579357,219.3,234.5309387463696,84,199.8,سجنان,SEJENANE DELG,بنزرت,Bizerte,الشمال الشرقي,Nord-Est,37.059741,9.246079,0.00
2025-11-25,0,101,89.82857149748173,153,179.75306132922364,63,131,جومين,DJOUMIN DELEGATION,بنزرت,Bizerte,الشمال الشرقي,Nord-Est,36.926992,9.388721,0.00
2025-11-25,0,49.6,67.87600010886788,174.1,153.41200020477174,29,88,ماطر,SIDI MBAREK (MATEUR),بنزرت,Bizerte,الشمال الشرقي,Nord-Est,37.021497,9.663226,0.00
2025-11-25,0,58,68.2760627241615,220,135.0821853416155,37,140.5,العالية,EL ALIA SE,بنزرت,Bizerte,الشمال الشرقي,Nord-Est,37.166386,10.037618,0.00
2025-11-25,0,60.5,86.70869566111462,153.2,170.22881583304974,53.3,87.5,راس الجبل,RAS JEBEL,بنزرت,Bizerte,الشمال الشرقي,Nord-Est,37.214993,10.126721,0.00
2025-11-25,0.3,59.3,84.61224492350405,172.5,164.93673476576797,41.5,108.4,تينجة,TINJA HER,بنزرت,Bizerte,الشمال الشرقي,Nord-Est,37.171789,9.757906,0.00
2025-11-25,2,80.60000000000001,89.9000001746416,143.9,182.9702002644538,69.60000000000001,122.9,بنزرت سيدي أحمد,SIDI AHMED SM BIZERTE,بنزرت,Bizerte,الشمال الشرقي,Nord-Est,37.232990,9.782023,0.00
2025-11-25,0,0,36.20000005796552,52,113.30000000029803,0,64,الجبيبنة 3 النظور,DJEBIBINA YABSA(NADHOR),زغوان,Zaghouan,الشمال الشرقي,Nord-Est,36.114288,10.097478,0.00
2025-11-25,0,2,38.07321430737672,68,122.64340995414315,33,147,صواف,SAOUAF,زغوان,Zaghouan,الشمال الشرقي,Nord-Est,36.229041,10.174420,0.00
2025-11-25,3,5.5,36.933999831676495,37,121.55163249539169,42,130.5,سد بئر مشارقة,BIR MECHARGA BGE,زغوان,Zaghouan,الشمال الشرقي,Nord-Est,36.509391,10.024123,0.00
2025-11-25,0,2,38.387499963243805,103.6,123.22340425781255,43,180,الفحص,PT DU FAHS SM,زغوان,Zaghouan,الشمال الشرقي,Nord-Est,36.352341,9.895514,0.00
2025-11-25,0,4,48.80612251344993,52,141.68759205958673,89,270.5,زغوان,ZAGHOUAN,زغوان,Zaghouan,الشمال الشرقي,Nord-Est,36.397791,10.145620,0.00
2025-11-25,0,5.5,55.959999951273204,35,154.28800002753738,54,174,الحمامات,HAMMAMET SM PF,نابل,Nabeul,الشمال الشرقي,Nord-Est,36.412631,10.603728,0.00
2025-11-25,0.5,18,85.34651151923246,100,174.61627854302876,85,299.5,الهوارية,HAOUARIA DELEG  SM,نابل,Nabeul,الشمال الشرقي,Nord-Est,37.035877,11.012778,0.00
2025-11-25,0,5,62.28599998354912,54.5,156.98391844615645,30,186,قرمبالية,GROMBALIA DRE,نابل,Nabeul,الشمال الشرقي,Nord-Est,36.578234,10.479524,0.00
2025-11-25,0,4,63.729999993443485,31,160.28600001022218,38,155,منزل بوزلفة,MENZEL BOUZELFA,نابل,Nabeul,الشمال الشرقي,Nord-Est,36.681733,10.583916,0.00
2025-11-25,0,10,50.851020337975754,40,149.19187747204188,15,185,قربة,KORBA SM,نابل,Nabeul,الشمال الشرقي,Nord-Est,36.578677,10.859311,0.00
2025-11-25,0,16.5,68.15999990403652,74,174.30273430911865,33.5,217,قليبية,KELIBIA SM,نابل,Nabeul,الشمال الشرقي,Nord-Est,36.855421,11.096021,0.00
2025-11-25,0.5,4.5,50.103755042519495,35.7,135.05175515648358,44.5,224,نابل,NABEUL SM,نابل,Nabeul,الشمال الشرقي,Nord-Est,36.443677,10.750420,0.00
2025-11-25,0,28,47.944192004632775,75,138.33937274074222,19,96,الخليدية,EL KHELIDIA,بن عروس,Ben Arous,الشمال الشرقي,Nord-Est,36.637193,10.194221,0.00
2025-11-25,0,10,57.7812500364768,62,139.35291409663083,11,100,برج السدرية,BORJ CEDRIA,بن عروس,Ben Arous,الشمال الشرقي,Nord-Est,36.663282,10.328322,0.00
2025-11-25,0,14.5,52.25399990543725,61.5,138.92599991649388,0,84.5,بن عروس,BEN AROUS MUNICIP.,بن عروس,Ben Arous,الشمال الشرقي,Nord-Est,36.720884,10.267123,0.00
2025-11-25,0,3,38.3120000204444,47,113.72861233180272,25,66,البطان,BATANE OMVVM,منوبة,Manouba,الشمال الشرقي,Nord-Est,36.796724,9.849985,0.00
2025-11-25,0,1,42.56734696395543,66.5,123.78881630273193,13,119,برج العامري,BORJ EL AMRI,منوبة,Manouba,الشمال الشرقي,Nord-Est,36.715495,9.886868,0.00
2025-11-25,1,13.5,47.504166692495346,56.5,128.56815478734057,13.5,89.5,منوبة,MANOUBA,منوبة,Manouba,الشمال الشرقي,Nord-Est,36.782991,10.077219,0.00
2025-11-25,0,19,61.84042559294625,75,146.04506350394422,58,144,قلعة الأندلس,Kalaat Andalos,أريانة,Ariana,الشمال الشرقي,Nord-Est,37.033000,10.114000,0.00
2025-11-25,0,19,52.92553198369261,118,127.3864136068373,8,64,سيدي ثابت,SIDI THABET,أريانة,Ariana,الشمال الشرقي,Nord-Est,36.912718,10.041491,0.00
2025-11-25,0,8,53.80200001418591,37,143.9380000475049,16,68,أريانة,ARIANA CENTRE D'ETUD,أريانة,Ariana,الشمال الشرقي,Nord-Est,36.848147,10.178561,0.00
2025-11-25,0,9.5,52.87799990385771,48.2,139.21200009942055,5.3,52.8,تونس المنوبية,TUNIS MANOUBIA,منوبة,Manouba,الشمال الشرقي,Nord-Est,36.784336,10.173078,0.00
2025-11-25,0,1,52.775999996215106,28,142.16399994581934,32.8,81.19999999999999,تونس قرطاج,TUNIS CARTHAGE SM,تونس,Tunis,الشمال الشرقي,Nord-Est,36.834284,10.248223,0.00
2025-11-25,0,3,41.77199993729591,104,134.25199996486302,9,47,مكثر,MAKTAR PF,سليانة,Siliana,الشمال الغربي,Nord-Ouest,35.853203,9.204221,0.00
2025-11-25,0,2,35.603528871688816,57,121.91662407773832,18,89,سد الأخماس,BARRAGE LAKHMES,سليانة,Siliana,الشمال الغربي,Nord-Ouest,36.074696,9.373423,0.00
2025-11-25,0,10,49.06530605864768,119,150.32840805030295,40,136,سعدية برقو,SAADIA DU BARGOU SM,سليانة,Siliana,الشمال الغربي,Nord-Ouest,36.035998,9.600219,0.00
2025-11-25,0,3,24.127500036358832,42,93.20420743793971,6,49,الروحية,ROHIA,سليانة,Siliana,الشمال الغربي,Nord-Ouest,35.651694,9.060217,0.00
2025-11-25,0,25,51.62997443208686,82,120.57691326032894,22,122,الكريب,KRIB FERME COSSEM,سليانة,Siliana,الشمال الغربي,Nord-Ouest,36.319045,9.137629,0.00
2025-11-25,0,5,39.177550981087336,52,118.49183676939225,19,78,بوعرادة,BOU ARADA II,سليانة,Siliana,الشمال الغربي,Nord-Ouest,36.349643,9.625698,0.00
2025-11-25,0,0,35.347999961078166,77,116.011999964416,16,102,سليانة,SILIANA AGRICOLE,سليانة,Siliana,الشمال الغربي,Nord-Ouest,36.085492,9.366221,0.00
2025-11-25,0,4,35.973784329019196,54,104.01792582659506,9.5,66.5,تاجروين,TEJROUINE,الكاف,Le Kef,الشمال الغربي,Nord-Ouest,35.936996,8.491428,0.00
2025-11-25,0,2,35.78372094381687,78.5,111.46511628600055,2,68.5,السرس,SERS DELEGATION,الكاف,Le Kef,الشمال الغربي,Nord-Ouest,36.066600,9.037090,0.00
2025-11-25,0,2,34.901999956369394,76.5,101.88599999934434,2.5,44.5,القصور,KSOUR ECOLE,الكاف,Le Kef,الشمال الغربي,Nord-Ouest,35.900994,8.793994,0.00
2025-11-25,0,2,37.98444452136754,97.5,104.9288889396522,1,55,قلعة سنان,KALAAT ESSENAM DELEG,الكاف,Le Kef,الشمال الغربي,Nord-Ouest,35.765992,8.340220,0.00
2025-11-25,1,9,46.72222229904599,78.2,116.60666672686736,8.5,106.8,ساقية سيدي يوسف,SAKIET SIDI YOUSSEF SM,الكاف,Le Kef,الشمال الغربي,Nord-Ouest,36.233272,8.367319,0.00
2025-11-25,0,6.9,28.126530658225633,58.099999999999994,86.91836724111008,3.5,86.60000000000001,سد ملاق,O.MELLEGUE K13,الكاف,Le Kef,الشمال الغربي,Nord-Ouest,36.323991,8.709228,0.00
2025-11-25,0,3.1,38.328571455971314,52.300000000000004,105.25918382178158,13.8,119.2,الكاف,KEF CMA,الكاف,Le Kef,الشمال الغربي,Nord-Ouest,36.131399,8.744326,0.00
2025-11-25,0,35,56.911999935954796,88,138.57538774785945,17,77,تيبار,TIBAR SM,باجة,Béja,الشمال الغربي,Nord-Ouest,36.521995,9.105227,0.00
2025-11-25,0,21,55.52599993288517,98,134.29526526824557,8.5,76,تبرسق,TEBOURSOUK,باجة,Béja,الشمال الغربي,Nord-Ouest,36.458999,9.249223,0.00
2025-11-25,0.1,5.199999999999999,43.77916662410523,64.3,115.0079786196906,12.499999999999998,94.9,سد سيدي سالم,BARRAGE SIDI SALEM,باجة,Béja,الشمال الغربي,Nord-Ouest,36.557991,9.402219,0.00
2025-11-25,0,174,144.63469381934527,266,261.97548475199636,106,265,نفزة,NEFSA DELEG,باجة,Béja,الشمال الغربي,Nord-Ouest,36.976043,9.082727,0.00
2025-11-25,0,2,40.506521696143814,57,112.96521729247077,6,97.5,مجاز الباب,MEJEZ EL BAB,باجة,Béja,الشمال الغربي,Nord-Ouest,36.650691,9.604720,0.00
2025-11-25,0,40.2,64.85624996122594,99.80000000000001,151.54204929109068,33.199999999999996,118.6,بــاجة,BEJA,باجة,Béja,الشمال الغربي,Nord-Ouest,36.722242,9.204225,0.00
2025-11-25,0.3,82,89.87111116995413,112.4,170.76777814534128,29.5,127.69999999999999,سد بوهرتمة,BOUHERTMA,جندوبة,Jendouba,الشمال الغربي,Nord-Ouest,36.674092,8.784465,0.00
2025-11-25,11,164.2,144.5240003156662,272.6,276.9320004539192,104.6,265.2,طبرقة,TABARKA,جندوبة,Jendouba,الشمال الغربي,Nord-Ouest,36.913855,8.747206,0.00
2025-11-25,9,277,202.26000009849665,391,382.82400005847205,83,276,عين دراهم,AIN DRAHEM,جندوبة,Jendouba,الشمال الغربي,Nord-Ouest,36.774894,8.683128,0.00
2025-11-25,0,27.5,46.61428573697197,112.5,108.27755104324646,5,73.5,غار الدماء,GHARDIMAOU DRE,جندوبة,Jendouba,الشمال الغربي,Nord-Ouest,36.450446,8.432837,0.00
2025-11-24,0,28.8,45.510000077486026,104.89999999999999,114.82400002896792,15.899999999999999,75.19999999999999,جندوبة,JENDOUBA,جندوبة,Jendouba,الشمال الغربي,Nord-Ouest,36.499091,8.794007,0.00
2025-11-24,0,34.6,45.78666673815912,59.1,111.41111117833195,9,48.6,بوسالم,BOUSALEM DRE,جندوبة,Jendouba,الشمال الغربي,Nord-Ouest,36.599846,8.968515,0.00
2025-11-24,0,27.5,46.61428573697197,112.5,107.8163265432326,5,73.5,غار الدماء,GHARDIMAOU DRE,جندوبة,Jendouba,الشمال الغربي,Nord-Ouest,36.450446,8.432837,0.00
2025-11-24,0,268,202.26000009849665,382,379.3720000398158,83,276,عين دراهم,AIN DRAHEM,جندوبة,Jendouba,الشمال الغربي,Nord-Ouest,36.774894,8.683128,0.00
2025-11-24,0,153.2,144.5240003156662,261.6,274.25000044450167,104.6,265.2,طبرقة,TABARKA,جندوبة,Jendouba,الشمال الغربي,Nord-Ouest,36.913855,8.747206,0.00
2025-11-24,0,81.7,89.87111116995413,112.1,168.94111149019818,29.5,127.69999999999999,سد بوهرتمة,BOUHERTMA,جندوبة,Jendouba,الشمال الغربي,Nord-Ouest,36.674092,8.784465,0.00
2025-11-24,0,40.2,64.85624996122594,99.80000000000001,150.68996595359744,33.199999999999996,118.6,بــاجة,BEJA,باجة,Béja,الشمال الغربي,Nord-Ouest,36.722242,9.204225,0.00
2025-11-24,0,2,40.506521696143814,57,112.54347817032881,6,97.5,مجاز الباب,MEJEZ EL BAB,باجة,Béja,الشمال الغربي,Nord-Ouest,36.650691,9.604720,0.00
2025-11-24,0,174,144.63469381934527,266,259.86119903479124,106,265,نفزة,NEFSA DELEG,باجة,Béja,الشمال الغربي,Nord-Ouest,36.976043,9.082727,0.00
2025-11-24,0,5.1,43.77916662410523,64.2,114.46839528685398,12.499999999999998,94.9,سد سيدي سالم,BARRAGE SIDI SALEM,باجة,Béja,الشمال الغربي,Nord-Ouest,36.557991,9.402219,0.00
2025-11-24,0,21,55.52599993288517,98,133.90726527110658,8.5,76,تبرسق,TEBOURSOUK,باجة,Béja,الشمال الغربي,Nord-Ouest,36.458999,9.249223,0.00
2025-11-24,0,35,56.911999935954796,88,138.1273877511675,17,77,تيبار,TIBAR SM,باجة,Béja,الشمال الغربي,Nord-Ouest,36.521995,9.105227,0.00
2025-11-24,0,3.1,38.328571455971314,52.300000000000004,104.72653076311157,13.8,119.2,الكاف,KEF CMA,الكاف,Le Kef,الشمال الغربي,Nord-Ouest,36.131399,8.744326,0.00
2025-11-24,0,6.9,28.126530658225633,58.099999999999994,86.09591823816295,3.5,86.60000000000001,سد ملاق,O.MELLEGUE K13,الكاف,Le Kef,الشمال الغربي,Nord-Ouest,36.323991,8.709228,0.00
2025-11-24,0,8,46.72222229904599,77.2,115.98444449868467,8.5,106.8,ساقية سيدي يوسف,SAKIET SIDI YOUSSEF SM,الكاف,Le Kef,الشمال الغربي,Nord-Ouest,36.233272,8.367319,0.00
2025-11-24,0,2,37.98444452136754,97.5,103.88222227295242,1,55,قلعة سنان,KALAAT ESSENAM DELEG,الكاف,Le Kef,الشمال الغربي,Nord-Ouest,35.765992,8.340220,0.00
2025-11-24,0,2,34.901999956369394,76.5,101.21599999934433,2.5,44.5,القصور,KSOUR ECOLE,الكاف,Le Kef,الشمال الغربي,Nord-Ouest,35.900994,8.793994,0.00
2025-11-24,0,2,35.78372094381687,78.5,110.04186047648275,2,68.5,السرس,SERS DELEGATION,الكاف,Le Kef,الشمال الغربي,Nord-Ouest,36.066600,9.037090,0.00
2025-11-24,0,4,35.973784329019196,54,102.95883488715997,9.5,66.5,تاجروين,TEJROUINE,الكاف,Le Kef,الشمال الغربي,Nord-Ouest,35.936996,8.491428,0.00
2025-11-24,0,0,35.347999961078166,77,114.92999996393917,16,102,سليانة,SILIANA AGRICOLE,سليانة,Siliana,الشمال الغربي,Nord-Ouest,36.085492,9.366221,0.00
2025-11-24,0,5,39.177550981087336,52,118.08367350408612,19,78,بوعرادة,BOU ARADA II,سليانة,Siliana,الشمال الغربي,Nord-Ouest,36.349643,9.625698,0.00
2025-11-24,0,25,51.62997443208686,82,120.01772958825843,22,122,الكريب,KRIB FERME COSSEM,سليانة,Siliana,الشمال الغربي,Nord-Ouest,36.319045,9.137629,0.00
2025-11-24,0,3,24.127500036358832,42,93.03670743674762,6,49,الروحية,ROHIA,سليانة,Siliana,الشمال الغربي,Nord-Ouest,35.651694,9.060217,0.00
2025-11-24,0,10,49.06530605864768,119,149.52228560223568,40,136,سعدية برقو,SAADIA DU BARGOU SM,سليانة,Siliana,الشمال الغربي,Nord-Ouest,36.035998,9.600219,0.00
2025-11-24,0,2,35.603528871688816,57,120.94927714553148,18,89,سد الأخماس,BARRAGE LAKHMES,سليانة,Siliana,الشمال الغربي,Nord-Ouest,36.074696,9.373423,0.00
2025-11-24,0,3,41.77199993729591,104,133.27199996486303,9,47,مكثر,MAKTAR PF,سليانة,Siliana,الشمال الغربي,Nord-Ouest,35.853203,9.204221,0.00
2025-11-24,0,1,52.775999996215106,28,141.37199995115395,32.8,81.19999999999999,تونس قرطاج,TUNIS CARTHAGE SM,تونس,Tunis,الشمال الشرقي,Nord-Est,36.834284,10.248223,0.00
2025-11-24,0,9.5,52.87799990385771,48.2,137.78600011944772,5.3,52.8,تونس المنوبية,TUNIS MANOUBIA,منوبة,Manouba,الشمال الشرقي,Nord-Est,36.784336,10.173078,0.00
2025-11-24,0,8,53.80200001418591,37,143.45000005468725,16,68,أريانة,ARIANA CENTRE D'ETUD,أريانة,Ariana,الشمال الشرقي,Nord-Est,36.848147,10.178561,0.00
2025-11-24,0,19,52.92553198369261,118,126.45875403233751,8,64,سيدي ثابت,SIDI THABET,أريانة,Ariana,الشمال الشرقي,Nord-Est,36.912718,10.041491,0.00
2025-11-24,0,19,61.84042559294625,75,144.766340101718,58,144,قلعة الأندلس,Kalaat Andalos,أريانة,Ariana,الشمال الشرقي,Nord-Est,37.033000,10.114000,0.00
2025-11-24,0,12.5,47.504166692495346,55.5,127.37023812067392,13.5,89.5,منوبة,MANOUBA,منوبة,Manouba,الشمال الشرقي,Nord-Est,36.782991,10.077219,0.00
2025-11-24,0,1,42.56734696395543,66.5,122.53371426434845,13,119,برج العامري,BORJ EL AMRI,منوبة,Manouba,الشمال الشرقي,Nord-Est,36.715495,9.886868,0.00
2025-11-24,0,3,38.3120000204444,47,112.4866123289417,25,66,البطان,BATANE OMVVM,منوبة,Manouba,الشمال الشرقي,Nord-Est,36.796724,9.849985,0.00
2025-11-24,0,14.5,52.25399990543725,61.5,138.15399991840124,0,84.5,بن عروس,BEN AROUS MUNICIP.,بن عروس,Ben Arous,الشمال الشرقي,Nord-Est,36.720884,10.267123,0.00
2025-11-24,0,10,57.7812500364768,62,138.02525450745182,11,100,برج السدرية,BORJ CEDRIA,بن عروس,Ben Arous,الشمال الشرقي,Nord-Est,36.663282,10.328322,0.00
2025-11-24,0,28,47.944192004632775,75,138.08159496111008,19,96,الخليدية,EL KHELIDIA,بن عروس,Ben Arous,الشمال الشرقي,Nord-Est,36.637193,10.194221,0.00
2025-11-24,0,4,50.103755042519495,35.2,133.3197551488542,44.5,224,نابل,NABEUL SM,نابل,Nabeul,الشمال الشرقي,Nord-Est,36.443677,10.750420,0.00
2025-11-24,0,16.5,68.15999990403652,74,172.74473430154885,33.5,217,قليبية,KELIBIA SM,نابل,Nabeul,الشمال الشرقي,Nord-Est,36.855421,11.096021,0.00
2025-11-24,0,10,50.851020337975754,40,147.76942849026048,15,185,قربة,KORBA SM,نابل,Nabeul,الشمال الشرقي,Nord-Est,36.578677,10.859311,0.00
2025-11-24,0,4,63.729999993443485,31,159.06000000640748,38,155,منزل بوزلفة,MENZEL BOUZELFA,نابل,Nabeul,الشمال الشرقي,Nord-Est,36.681733,10.583916,0.00
2025-11-24,0,5,62.28599998354912,54.5,156.01991844758697,30,186,قرمبالية,GROMBALIA DRE,نابل,Nabeul,الشمال الشرقي,Nord-Est,36.578234,10.479524,0.00
2025-11-24,0,17.5,85.34651151923246,99.5,173.23488320306294,85,299.5,الهوارية,HAOUARIA DELEG  SM,نابل,Nabeul,الشمال الشرقي,Nord-Est,37.035877,11.012778,0.00
2025-11-24,0,5.5,55.959999951273204,35,152.91600003898148,54,174,الحمامات,HAMMAMET SM PF,نابل,Nabeul,الشمال الشرقي,Nord-Est,36.412631,10.603728,0.00
2025-11-24,0,4,48.80612251344993,52,140.51004104063827,89,270.5,زغوان,ZAGHOUAN,زغوان,Zaghouan,الشمال الشرقي,Nord-Est,36.397791,10.145620,0.00
2025-11-24,0,2,38.387499963243805,103.6,122.36298759213929,43,180,الفحص,PT DU FAHS SM,زغوان,Zaghouan,الشمال الشرقي,Nord-Est,36.352341,9.895514,0.00
2025-11-24,0,2.5,36.933999831676495,34,120.77363250108392,42,130.5,سد بئر مشارقة,BIR MECHARGA BGE,زغوان,Zaghouan,الشمال الشرقي,Nord-Est,36.509391,10.024123,0.00
2025-11-24,0,2,38.07321430737672,68,122.21483852557172,33,147,صواف,SAOUAF,زغوان,Zaghouan,الشمال الشرقي,Nord-Est,36.229041,10.174420,0.00
2025-11-24,0,0,36.20000005796552,52,112.51799998790027,0,64,الجبيبنة 3 النظور,DJEBIBINA YABSA(NADHOR),زغوان,Zaghouan,الشمال الشرقي,Nord-Est,36.114288,10.097478,0.00
2025-11-24,0,78.60000000000001,89.9000001746416,141.9,181.40420025870196,69.60000000000001,122.9,بنزرت سيدي أحمد,SIDI AHMED SM BIZERTE,بنزرت,Bizerte,الشمال الشرقي,Nord-Est,37.232990,9.782023,0.00
2025-11-24,0,59,84.61224492350405,172.2,163.62653067555954,41.5,108.4,تينجة,TINJA HER,بنزرت,Bizerte,الشمال الشرقي,Nord-Est,37.171789,9.757906,0.00
2025-11-24,0,60.5,86.70869566111462,153.2,168.42446800696277,53.3,87.5,راس الجبل,RAS JEBEL,بنزرت,Bizerte,الشمال الشرقي,Nord-Est,37.214993,10.126721,0.00
2025-11-24,0,58,68.2760627241615,220,133.7883077992925,37,140.5,العالية,EL ALIA SE,بنزرت,Bizerte,الشمال الشرقي,Nord-Est,37.166386,10.037618,0.00
2025-11-24,0,49.6,67.87600010886788,174.1,151.6920002056658,29,88,ماطر,SIDI MBAREK (MATEUR),بنزرت,Bizerte,الشمال الشرقي,Nord-Est,37.021497,9.663226,0.00
2025-11-24,0,101,89.82857149748173,153,177.47959194438795,63,131,جومين,DJOUMIN DELEGATION,بنزرت,Bizerte,الشمال الشرقي,Nord-Est,36.926992,9.388721,0.00
2025-11-24,0,154.5,124.1380000579357,210.3,230.50293874684644,84,199.8,سجنان,SEJENANE DELG,بنزرت,Bizerte,الشمال الشرقي,Nord-Est,37.059741,9.246079,0.00
2025-11-24,0,0.6,26.908000009655943,47.4,108.01400011137129,10,120.6,القيروان,KAIROUAN SM,القيروان,Kairouan,الوسط الغربي,Centre-Ouest,35.675988,10.104229,0.00
2025-11-24,0,3,22.812195251627664,40.5,116.32926858961581,9.5,78.5,حفوز,HAFFOUZ DRE,القيروان,Kairouan,الوسط الغربي,Centre-Ouest,35.635497,9.676719,0.00
2025-11-24,0,0,26.67317077444821,37,95.86829256829694,41,137,سد نبهانة,NEBHANA BARRAGE,القيروان,Kairouan,الوسط الغربي,Centre-Ouest,35.392496,9.700119,0.00
2025-11-24,0,0,30.150000100800145,75.5,126.47358164493764,20,69.5,الوسلاتية,OUSLATIA INRAT,القيروان,Kairouan,الوسط الغربي,Centre-Ouest,35.774996,9.591225,0.00
2025-11-24,0,0,28.635999981462952,71,117.62400000438093,45.5,155.5,السبيخة,SBIKHA,القيروان,Kairouan,الوسط الغربي,Centre-Ouest,35.918093,10.035820,0.00
2025-11-24,0,0,22.021469411418146,35.5,88.10751024946875,35,86,سيدي عمر بوحجلة,SIDI AMOR BOUHAJLA,القيروان,Kairouan,الوسط الغربي,Centre-Ouest,35.395191,10.057861,0.00
2025-11-24,0,0.1,19.566000042855737,39.1,80.2660000909865,7.1,96.3,سد سيدي سعد,SIDI SAAD BARRAGE,القيروان,Kairouan,الوسط الغربي,Centre-Ouest,35.384036,9.694255,0.00
2025-11-24,0,3.6,19.29999993503094,86.5,86.4260000188649,5.5,99.5,القصرين,KASSERINE,القصرين,Kasserine,الوسط الغربي,Centre-Ouest,35.165694,8.826228,0.00
2025-11-24,0,7,21.785416735491406,73.5,91.12083337564638,17.5,88.5,فريانة,FERIANA SM,القصرين,Kasserine,الوسط الغربي,Centre-Ouest,34.947446,8.576477,0.00
2025-11-24,0,4.5,20.108510602661898,125,69.06392424246803,15.5,128.5,فوسانة,FOUSSANA,القصرين,Kasserine,الوسط الغربي,Centre-Ouest,35.351991,8.634512,0.00
2025-11-24,0,3.3,15.917999988943336,20.1,75.54399995729328,4.9,60.9,خنقة الزازية,KHANGUET ZAZIA,القصرين,Kasserine,الوسط الغربي,Centre-Ouest,35.090993,9.124563,0.00
2025-11-24,0,3.5,25.235555455585324,102.5,101.987777688815,1,36,سبيبة,SBIBA VILLE SM,القصرين,Kasserine,الوسط الغربي,Centre-Ouest,35.228696,9.123125,0.00
2025-11-24,0,2,17.83600006058812,87,77.64200014159081,6,80,سبيطلة,SBEITLA  PAVA,القصرين,Kasserine,الوسط الغربي,Centre-Ouest,35.228696,9.123136,0.00
2025-11-24,0,1,37.968000009506945,61.1,115.45400003984571,0,63.5,تالة,TALA SM,القصرين,Kasserine,الوسط الغربي,Centre-Ouest,35.578792,8.670524,0.00
2025-11-24,0,2,21.465957408255722,73,96.62553187063399,67.5,164.2,سيدي بوزيد,SIDI BOUZID SM,سيدي بوزيد,Sidi Bouzid,الوسط الغربي,Centre-Ouest,34.964999,9.447219,0.00
2025-11-24,0,6,19.72127658794535,23,78.72203014516238,25,179,سيدي علي بن عون,SIDI ALI BEN AOUN,سيدي بوزيد,Sidi Bouzid,الوسط الغربي,Centre-Ouest,34.855194,9.142115,0.00
2025-11-24,0,5,19.979999991953374,37,83.10559188236996,61,165.3,بير الحفي,BIR LAHFAY,سيدي بوزيد,Sidi Bouzid,الوسط الغربي,Centre-Ouest,34.931245,9.196117,0.00
2025-11-24,0,0,15.056000000536441,9,68.30400005683302,2.5,67.5,المكناسي,MEKNASSY GR SM,سيدي بوزيد,Sidi Bouzid,الوسط الغربي,Centre-Ouest,34.919999,8.716511,0.00
2025-11-24,0,4,18.955555544959175,59.5,78.77206153030288,15.5,187.2,الرقاب,REGUEB SM DELEGATION,سيدي بوزيد,Sidi Bouzid,الوسط الغربي,Centre-Ouest,34.847997,9.789227,0.00
2025-11-24,0,1,18.719148917401093,40.5,78.6521481398649,0,82.3,جلمة,JELMA HER,سيدي بوزيد,Sidi Bouzid,الوسط الغربي,Centre-Ouest,35.270999,9.429225,0.00
2025-11-24,0,1.5,12.906249983857077,14,68.65500887557336,8,72,المزونة,MEZZOUNA DISPENSAIRE,سيدي بوزيد,Sidi Bouzid,الوسط الغربي,Centre-Ouest,34.575739,9.847000,0.00
2025-11-24,0,1,39.63469390023728,46,126.05102034764633,19,204,سوسة,SOUSSE PF,سوسة,Sousse,الوسط الشرقي,Centre-Est,35.828981,10.646020,0.00
2025-11-24,0,0,40.263265332397154,29,130.86878061182642,28,175,النفيضة,ENFIDA FORET,سوسة,Sousse,الوسط الشرقي,Centre-Est,36.133633,10.377370,0.00
2025-11-24,0,2,34.61836740374565,25,116.82555270941653,22.5,168.5,مساكن,MSAKEN DELG SM,سوسة,Sousse,الوسط الشرقي,Centre-Est,35.731787,10.577622,0.00
2025-11-24,0,0,42.78297867768622,23,120.59552313253312,18,218,سيدي بوعلي,SIDI BOU ALI,سوسة,Sousse,الوسط الشرقي,Centre-Est,35.957682,10.479071,0.00
2025-11-24,0,1.2,31.704255266392476,124.2,110.2210594282894,13,194.5,الكندار,KUNDAR,سوسة,Sousse,الوسط الشرقي,Centre-Est,35.949137,10.284220,0.00
2025-11-24,0,1,34.68888899270031,26,126.14606086735546,18,220,المنستير,SKANES MONASTIR  SM,المنستير,Monastir,الوسط الشرقي,Centre-Est,35.749873,10.753752,0.00
2025-11-24,0,1,46.23200009793043,51,144.09800026774406,15,296,المكنين,MOKNINE SM,المنستير,Monastir,الوسط الشرقي,Centre-Est,35.626034,10.716228,0.00
2025-11-24,0,1,47.96399999678134,23,143.46399986101656,17,261,طبلبة,TEBOULBA BNE VENNE I,المنستير,Monastir,الوسط الشرقي,Centre-Est,35.635477,10.779221,0.00
2025-11-24,0,3,44.194000003933915,22,142.1149388662102,30,212,جــمال,JEMMEL,المنستير,Monastir,الوسط الشرقي,Centre-Est,35.623779,10.763029,0.00
2025-11-24,0,1,39.37400004833937,20.6,131.6960001730919,11.2,259,المهدية,MAHDIA,المهدية,Mahdia,الوسط الشرقي,Centre-Est,35.518477,11.031220,0.00
2025-11-24,0,6,40.29565222496572,33,131.0409662802726,11.5,234.5,الشابة,CHEBBA MUNICIPALITE,المهدية,Mahdia,الوسط الشرقي,Centre-Est,35.237678,11.115822,0.00
2025-11-24,0,3,22.070833294807624,40,87.79293561220103,17,138,السواسي,SOUASSI,المهدية,Mahdia,الوسط الشرقي,Centre-Est,35.348563,10.544329,0.00
2025-11-24,0,1.5,31.779166597562536,25.2,106.80527471582545,31,177.7,الـــجم,EL JEM SM,المهدية,Mahdia,الوسط الشرقي,Centre-Est,35.296183,10.709476,0.00
2025-11-24,0,6,21.090000054836274,41,85.33999988600614,29.5,132.1,صفاقس,SFAX MAOU SM,صفاقس,Sfax,الوسط الشرقي,Centre-Est,34.716489,10.734221,0.00
2025-11-24,0,7,17.565999994277952,67.5,72.3742857972943,46,180.5,عقارب,AGAREB DELEGATION,صفاقس,Sfax,الوسط الشرقي,Centre-Est,34.740884,10.533074,0.00
2025-11-24,0,5,14.551999994516374,42,69.27000004321334,25,173,بير علي بن خليفة,BIR ALI BEN KHELIFA,صفاقس,Sfax,الوسط الشرقي,Centre-Est,34.737292,10.095218,0.00
2025-11-24,0,18,15.628888911339976,49.5,69.19603867251516,22.5,160.6,الغريبة,EL GHRAIBA,صفاقس,Sfax,الوسط الشرقي,Centre-Est,34.499686,10.221215,0.00
2025-11-24,0,0,23.346938775510203,28,85.2202380952381,19.5,136.5,قرقنة,KERKENEH MELLITTA,صفاقس,Sfax,الوسط الشرقي,Centre-Est,34.642780,11.029420,0.00
2025-11-24,0,4,16.349999984502794,19,76.50400005459788,9,134.5,منزل شاكر,MENZEL CHAKER,صفاقس,Sfax,الوسط الشرقي,Centre-Est,34.556840,10.313026,0.00
2025-11-24,0,4,26.45886526040152,16,96.02444292128274,11,192,الحنشة,HANCHA,صفاقس,Sfax,الوسط الشرقي,Centre-Est,35.122934,10.745022,0.00
2025-11-24,0,3,17.08600006580353,21.2,48.505999998599314,15,48,قفصة,GAFSA 1 SM,قفصة,Gafsa,الجنوب الغربي,Sud-Ouest,34.424999,8.799228,0.00
2025-11-24,0,1,13.858695639864258,69,42.45883431640573,30,87,القطار,EL GUETAR,قفصة,Gafsa,الجنوب الغربي,Sud-Ouest,34.334994,8.925215,0.00
2025-11-24,0,1,16.40000005163576,19,59.88478257620466,16,79.5,السند,ESSNED,قفصة,Gafsa,الجنوب الغربي,Sud-Ouest,34.546493,9.258217,0.00
2025-11-24,0,3,13.82173913101787,21,31.261835749019024,8,58,المنلوي,METLAOUI SM,قفصة,Gafsa,الجنوب الغربي,Sud-Ouest,34.316991,8.421221,0.00
2025-11-24,0,0,18.042857154849028,31,41.11995679907687,1,68.5,الرديف,MOULARES SM,قفصة,Gafsa,الجنوب الغربي,Sud-Ouest,34.361991,8.169228,0.00
2025-11-24,0,2,14.03913041042245,28,77.1780634293914,22,116,سيدي يعيش,REDEYEF  SM,قفصة,Gafsa,الجنوب الغربي,Sud-Ouest,34.710293,8.782128,0.00
2025-11-24,0,3,13.822916609700767,36,40.4060284904376,43.5,70.3,أم العرائس,SIDI AIECH,قفصة,Gafsa,الجنوب الغربي,Sud-Ouest,34.487989,8.295220,0.00
2025-11-24,0,3.5,10.916000046283004,12,26.669999993890517,0,39,توزر,TOZEUR SM,توزر,Tozeur,الجنوب الغربي,Sud-Ouest,32.925131,8.097222,0.00
2025-11-24,0,4.5,14.760000093777974,68.5,30.338142727480037,2.5,53,تمغزة,TAMEGHZA.GN,توزر,Tozeur,الجنوب الغربي,Sud-Ouest,34.379992,7.945848,0.00
2025-11-24,0,4,11.30888894399007,29,23.323140153745964,0,34.5,دقاش,DEGACHE MUNICIPALITE,توزر,Tozeur,الجنوب الغربي,Sud-Ouest,32.983992,8.239419,0.00
2025-11-24,0,3.5,11.968085119064819,20.5,24.509852003109717,0,34.5,نفطة,NEFTA,توزر,Tozeur,الجنوب الغربي,Sud-Ouest,32.859794,7.907325,0.00
2025-11-24,0,0,9.160465135823848,1,24.86368926337292,0,42,قبلي,KEBILI SE,قبلي,Kébili,الجنوب الغربي,Sud-Ouest,32.704992,8.979226,0.00
2025-11-24,0,1,7.867499973252414,9,19.95910571202524,0,0,الفوار,EL FAOUR DOUZ,قبلي,Kébili,الجنوب الغربي,Sud-Ouest,32.370194,8.668720,0.00
2025-11-24,0,8.5,7.482499976456165,14.5,22.5555807075659,0,44.8,دوز,DOUZ CRDA SM,قبلي,Kébili,الجنوب الغربي,Sud-Ouest,32.461996,9.024224,0.00
2025-11-24,0,1.5,22.302040843179036,15.5,78.98714257155143,0,81.5,قابس,GABES SM,قابس,Gabès,الجنوب الشرقي,Sud-Est,32.857991,10.108727,0.00
2025-11-24,0,0,10.212500013783576,14,45.017499935440696,0,46.5,الحامة,EL HAMMA PV,قابس,Gabès,الجنوب الشرقي,Sud-Est,32.844495,9.816229,0.00
2025-11-24,0,2,20.382051239793114,13,62.176923035620106,0,128,المطوية,METOUIA SM,قابس,Gabès,الجنوب الشرقي,Sud-Est,32.957894,10.036720,0.00
2025-11-24,0,15,22.157142834395778,28,54.701836789676115,0,56,مطماطة,MATMATA DELEGATION,قابس,Gabès,الجنوب الشرقي,Sud-Est,32.542987,9.987223,0.00
2025-11-24,0,14.8,16.955999945402144,23.4,51.416000260412694,0,60.599999999999994,مدنين,MEDENINE 1 SM,مدنين,Médenine,الجنوب الشرقي,Sud-Est,32.335986,10.500219,0.00
2025-11-24,0,3,21.300000068254594,13.5,51.436585279863074,0,42.8,بني خداش,BENI KHEDECHE,مدنين,Médenine,الجنوب الشرقي,Sud-Est,32.245991,10.203218,0.00
2025-11-24,0,0.8999999999999999,26.814285726267467,36.9,64.07198308399265,0,33.5,بن قردان,BEN GUERDANE 1 SM,مدنين,Médenine,الجنوب الشرقي,Sud-Est,32.160484,10.770229,0.00
2025-11-24,0,2.9,33.3224488680764,60.5,84.38924320352889,0,31,جرجيس,ZARZIS VILLE SE 2,مدنين,Médenine,الجنوب الشرقي,Sud-Est,32.497974,11.117350,0.00
2025-11-24,0,20,29.634000088721514,47.5,84.34269389839805,4,63.5,جربة حومة السوق,JERBA EL MAY SM,مدنين,Médenine,الجنوب الشرقي,Sud-Est,32.799485,10.887131,0.00
2025-11-24,0,0,12.316490513404503,9,30.96812645742355,0,72.6,تطاوين,TATAOUINE SM,تطاوين,Tataouine,الجنوب الشرقي,Sud-Est,32.927392,10.451446,0.00
2025-11-24,0,7,14.258139550685883,12,30.85760603158281,0,40.199999999999996,غمراسن,"GHOMRASSEN DELEG,",تطاوين,Tataouine,الجنوب الشرقي,Sud-Est,32.065988,10.347224,0.00
2025-11-24,0,0,7.592857174397934,1,23.486544893474907,0,30.7,رمادة,REMADA SM,تطاوين,Tataouine,الجنوب الشرقي,Sud-Est,32.315391,10.403298,0.00
2025-11-23,0,0,7.592857174397934,1,22.455592503368955,0,30.7,رمادة,REMADA SM,تطاوين,Tataouine,الجنوب الشرقي,Sud-Est,32.315391,10.403298,0.00
2025-11-23,0,28.8,45.510000077486026,104.89999999999999,113.5720000287891,15.899999999999999,75.19999999999999,جندوبة,JENDOUBA,جندوبة,Jendouba,الشمال الغربي,Nord-Ouest,36.499091,8.794007,0.00
2025-11-23,0,34.6,45.78666673815912,59.1,110.24222231308623,9,48.6,بوسالم,BOUSALEM DRE,جندوبة,Jendouba,الشمال الغربي,Nord-Ouest,36.599846,8.968515,0.00
2025-11-23,0,27.5,46.61428573697197,112.5,106.5938775677766,5,73.5,غار الدماء,GHARDIMAOU DRE,جندوبة,Jendouba,الشمال الغربي,Nord-Ouest,36.450446,8.432837,0.00
2025-11-23,0,268,202.26000009849665,382,374.12000002264966,83,276,عين دراهم,AIN DRAHEM,جندوبة,Jendouba,الشمال الغربي,Nord-Ouest,36.774894,8.683128,0.00
2025-11-23,0,153.2,144.5240003156662,261.6,268.9280004416406,104.6,265.2,طبرقة,TABARKA,جندوبة,Jendouba,الشمال الغربي,Nord-Ouest,36.913855,8.747206,0.00
2025-11-23,0,81.7,89.87111116995413,112.1,165.84555595424592,29.5,127.69999999999999,سد بوهرتمة,BOUHERTMA,جندوبة,Jendouba,الشمال الغربي,Nord-Ouest,36.674092,8.784465,0.00
2025-11-23,0,40.2,64.85624996122594,99.80000000000001,148.60871595937164,33.199999999999996,118.6,بــاجة,BEJA,باجة,Béja,الشمال الغربي,Nord-Ouest,36.722242,9.204225,0.00
2025-11-23,0,2,40.506521696143814,57,111.56086947882305,6,97.5,مجاز الباب,MEJEZ EL BAB,باجة,Béja,الشمال الغربي,Nord-Ouest,36.650691,9.604720,0.00
2025-11-23,0,174,144.63469381934527,266,255.46732147744547,106,265,نفزة,NEFSA DELEG,باجة,Béja,الشمال الغربي,Nord-Ouest,36.976043,9.082727,0.00
2025-11-23,0,5.1,43.77916662410523,64.2,113.17047862614777,12.499999999999998,94.9,سد سيدي سالم,BARRAGE SIDI SALEM,باجة,Béja,الشمال الغربي,Nord-Ouest,36.557991,9.402219,0.00
2025-11-23,0,21,55.52599993288517,98,132.90326525346362,8.5,76,تبرسق,TEBOURSOUK,باجة,Béja,الشمال الغربي,Nord-Ouest,36.458999,9.249223,0.00
2025-11-23,0,35,56.911999935954796,88,136.69938773644515,17,77,تيبار,TIBAR SM,باجة,Béja,الشمال الغربي,Nord-Ouest,36.521995,9.105227,0.00
2025-11-23,0,3.1,38.328571455971314,52.300000000000004,103.53877565006214,13.8,119.2,الكاف,KEF CMA,الكاف,Le Kef,الشمال الغربي,Nord-Ouest,36.131399,8.744326,0.00
2025-11-23,0,6.9,28.126530658225633,58.099999999999994,84.95102029065693,3.5,86.60000000000001,سد ملاق,O.MELLEGUE K13,الكاف,Le Kef,الشمال الغربي,Nord-Ouest,36.323991,8.709228,0.00
2025-11-23,0,8,46.72222229904599,77.2,114.57555558052327,8.5,106.8,ساقية سيدي يوسف,SAKIET SIDI YOUSSEF SM,الكاف,Le Kef,الشمال الغربي,Nord-Ouest,36.233272,8.367319,0.00
2025-11-23,0,2,37.98444452136754,97.5,102.81333338485825,1,55,قلعة سنان,KALAAT ESSENAM DELEG,الكاف,Le Kef,الشمال الغربي,Nord-Ouest,35.765992,8.340220,0.00
2025-11-23,0,2,34.901999956369394,76.5,100.50599999934434,2.5,44.5,القصور,KSOUR ECOLE,الكاف,Le Kef,الشمال الغربي,Nord-Ouest,35.900994,8.793994,0.00
2025-11-23,0,2,35.78372094381687,78.5,108.95348840120228,2,68.5,السرس,SERS DELEGATION,الكاف,Le Kef,الشمال الغربي,Nord-Ouest,36.066600,9.037090,0.00
2025-11-23,0,4,35.973784329019196,54,101.81792582226018,9.5,66.5,تاجروين,TEJROUINE,الكاف,Le Kef,الشمال الغربي,Nord-Ouest,35.936996,8.491428,0.00
2025-11-23,0,0,35.347999961078166,77,114.5059999629855,16,102,سليانة,SILIANA AGRICOLE,سليانة,Siliana,الشمال الغربي,Nord-Ouest,36.085492,9.366221,0.00
2025-11-23,0,5,39.177550981087336,52,115.75714289184123,19,78,بوعرادة,BOU ARADA II,سليانة,Siliana,الشمال الغربي,Nord-Ouest,36.349643,9.625698,0.00
2025-11-23,0,25,51.62997443208686,82,118.82793366812727,22,122,الكريب,KRIB FERME COSSEM,سليانة,Siliana,الشمال الغربي,Nord-Ouest,36.319045,9.137629,0.00
2025-11-23,0,3,24.127500036358832,42,92.00170742244251,6,49,الروحية,ROHIA,سليانة,Siliana,الشمال الغربي,Nord-Ouest,35.651694,9.060217,0.00
2025-11-23,0,10,49.06530605864768,119,148.19983661388562,40,136,سعدية برقو,SAADIA DU BARGOU SM,سليانة,Siliana,الشمال الغربي,Nord-Ouest,36.035998,9.600219,0.00
2025-11-23,0,2,35.603528871688816,57,119.53703225268127,18,89,سد الأخماس,BARRAGE LAKHMES,سليانة,Siliana,الشمال الغربي,Nord-Ouest,36.074696,9.373423,0.00
2025-11-23,0,3,41.77199993729591,104,132.04799999728795,9,47,مكثر,MAKTAR PF,سليانة,Siliana,الشمال الغربي,Nord-Ouest,35.853203,9.204221,0.00
2025-11-23,0,1,52.775999996215106,28,139.45999998882408,32.8,81.19999999999999,تونس قرطاج,TUNIS CARTHAGE SM,تونس,Tunis,الشمال الشرقي,Nord-Est,36.834284,10.248223,0.00
2025-11-23,0,9.5,52.87799990385771,48.2,137.09600012063981,5.3,52.8,تونس المنوبية,TUNIS MANOUBIA,منوبة,Manouba,الشمال الشرقي,Nord-Est,36.784336,10.173078,0.00
2025-11-23,0,8,53.80200001418591,37,141.68400002360343,16,68,أريانة,ARIANA CENTRE D'ETUD,أريانة,Ariana,الشمال الشرقي,Nord-Est,36.848147,10.178561,0.00
2025-11-23,0,19,52.92553198369261,118,125.35024338085053,8,64,سيدي ثابت,SIDI THABET,أريانة,Ariana,الشمال الشرقي,Nord-Est,36.912718,10.041491,0.00
2025-11-23,0,19,61.84042559294625,75,143.140808189868,58,144,قلعة الأندلس,Kalaat Andalos,أريانة,Ariana,الشمال الشرقي,Nord-Est,37.033000,10.114000,0.00
2025-11-23,0,12.5,47.504166692495346,55.5,126.91607145003361,13.5,89.5,منوبة,MANOUBA,منوبة,Manouba,الشمال الشرقي,Nord-Est,36.782991,10.077219,0.00
2025-11-23,0,1,42.56734696395543,66.5,121.76432651405128,13,119,برج العامري,BORJ EL AMRI,منوبة,Manouba,الشمال الشرقي,Nord-Est,36.715495,9.886868,0.00
2025-11-23,0,3,38.3120000204444,47,111.74861232792843,25,66,البطان,BATANE OMVVM,منوبة,Manouba,الشمال الشرقي,Nord-Est,36.796724,9.849985,0.00
2025-11-23,0,14.5,52.25399990543725,61.5,136.3439999011159,0,84.5,بن عروس,BEN AROUS MUNICIP.,بن عروس,Ben Arous,الشمال الشرقي,Nord-Est,36.720884,10.267123,0.00
2025-11-23,0,10,57.7812500364768,62,137.21248855152683,11,100,برج السدرية,BORJ CEDRIA,بن عروس,Ben Arous,الشمال الشرقي,Nord-Est,36.663282,10.328322,0.00
2025-11-23,0,28,47.944192004632775,75,137.13715052295723,19,96,الخليدية,EL KHELIDIA,بن عروس,Ben Arous,الشمال الشرقي,Nord-Est,36.637193,10.194221,0.00
2025-11-23,0,4,50.103755042519495,35.2,132.56575514059895,44.5,224,نابل,NABEUL SM,نابل,Nabeul,الشمال الشرقي,Nord-Est,36.443677,10.750420,0.00
2025-11-23,0,16.5,68.15999990403652,74,169.84273429526056,33.5,217,قليبية,KELIBIA SM,نابل,Nabeul,الشمال الشرقي,Nord-Est,36.855421,11.096021,0.00
2025-11-23,0,10,50.851020337975754,40,145.34493868558388,15,185,قربة,KORBA SM,نابل,Nabeul,الشمال الشرقي,Nord-Est,36.578677,10.859311,0.00
2025-11-23,0,4,63.729999993443485,31,158.02400000736114,38,155,منزل بوزلفة,MENZEL BOUZELFA,نابل,Nabeul,الشمال الشرقي,Nord-Est,36.681733,10.583916,0.00
2025-11-23,0,5,62.28599998354912,54.5,155.51391843661972,30,186,قرمبالية,GROMBALIA DRE,نابل,Nabeul,الشمال الشرقي,Nord-Est,36.578234,10.479524,0.00
2025-11-23,0,17.5,85.34651151923246,99.5,171.83255762485575,85,299.5,الهوارية,HAOUARIA DELEG  SM,نابل,Nabeul,الشمال الشرقي,Nord-Est,37.035877,11.012778,0.00
2025-11-23,0,5.5,55.959999951273204,35,151.21000003993515,54,174,الحمامات,HAMMAMET SM PF,نابل,Nabeul,الشمال الشرقي,Nord-Est,36.412631,10.603728,0.00
2025-11-23,0,4,48.80612251344993,52,140.03249002558235,89,270.5,زغوان,ZAGHOUAN,زغوان,Zaghouan,الشمال الشرقي,Nord-Est,36.397791,10.145620,0.00
2025-11-23,0,2,38.387499963243805,103.6,121.97340425781255,43,180,الفحص,PT DU FAHS SM,زغوان,Zaghouan,الشمال الشرقي,Nord-Est,36.352341,9.895514,0.00
2025-11-23,0,2.5,36.933999831676495,34,120.44563250722321,42,130.5,سد بئر مشارقة,BIR MECHARGA BGE,زغوان,Zaghouan,الشمال الشرقي,Nord-Est,36.509391,10.024123,0.00
2025-11-23,0,2,38.07321430737672,68,121.42912423985743,33,147,صواف,SAOUAF,زغوان,Zaghouan,الشمال الشرقي,Nord-Est,36.229041,10.174420,0.00
2025-11-23,0,0,36.20000005796552,52,110.37599998980761,0,64,الجبيبنة 3 النظور,DJEBIBINA YABSA(NADHOR),زغوان,Zaghouan,الشمال الشرقي,Nord-Est,36.114288,10.097478,0.00
2025-11-23,1,78.60000000000001,89.9000001746416,141.9,178.27620026260607,69.60000000000001,122.9,بنزرت سيدي أحمد,SIDI AHMED SM BIZERTE,بنزرت,Bizerte,الشمال الشرقي,Nord-Est,37.232990,9.782023,0.00
2025-11-23,0,59,84.61224492350405,172.2,161.32653067428228,41.5,108.4,تينجة,TINJA HER,بنزرت,Bizerte,الشمال الشرقي,Nord-Est,37.171789,9.757906,0.00
2025-11-23,0,60.5,86.70869566111462,153.2,165.51794627651387,53.3,87.5,راس الجبل,RAS JEBEL,بنزرت,Bizerte,الشمال الشرقي,Nord-Est,37.214993,10.126721,0.00
2025-11-23,0,58,68.2760627241615,220,131.70055268241134,37,140.5,العالية,EL ALIA SE,بنزرت,Bizerte,الشمال الشرقي,Nord-Est,37.166386,10.037618,0.00
2025-11-23,0,49.6,67.87600010886788,174.1,149.83000020995735,29,88,ماطر,SIDI MBAREK (MATEUR),بنزرت,Bizerte,الشمال الشرقي,Nord-Est,37.021497,9.663226,0.00
2025-11-23,0,101,89.82857149748173,153,173.70408173544064,63,131,جومين,DJOUMIN DELEGATION,بنزرت,Bizerte,الشمال الشرقي,Nord-Est,36.926992,9.388721,0.00
2025-11-23,0,154.5,124.1380000579357,210.3,225.46693874303173,84,199.8,سجنان,SEJENANE DELG,بنزرت,Bizerte,الشمال الشرقي,Nord-Est,37.059741,9.246079,0.00
2025-11-23,0,0.6,26.908000009655943,47.4,107.54800010576845,10,120.6,القيروان,KAIROUAN SM,القيروان,Kairouan,الوسط الغربي,Centre-Ouest,35.675988,10.104229,0.00
2025-11-23,0,3,22.812195251627664,40.5,115.66341493733044,9.5,78.5,حفوز,HAFFOUZ DRE,القيروان,Kairouan,الوسط الغربي,Centre-Ouest,35.635497,9.676719,0.00
2025-11-23,0,0,26.67317077444821,37,95.67073159137878,41,137,سد نبهانة,NEBHANA BARRAGE,القيروان,Kairouan,الوسط الغربي,Centre-Ouest,35.392496,9.700119,0.00
2025-11-23,0,0,30.150000100800145,75.5,125.70066498118912,20,69.5,الوسلاتية,OUSLATIA INRAT,القيروان,Kairouan,الوسط الغربي,Centre-Ouest,35.774996,9.591225,0.00
2025-11-23,0,0,28.635999981462952,71,117.57400000438093,45.5,155.5,السبيخة,SBIKHA,القيروان,Kairouan,الوسط الغربي,Centre-Ouest,35.918093,10.035820,0.00
2025-11-23,0,0,22.021469411418146,35.5,86.70751024946874,35,86,سيدي عمر بوحجلة,SIDI AMOR BOUHAJLA,القيروان,Kairouan,الوسط الغربي,Centre-Ouest,35.395191,10.057861,0.00
2025-11-23,0,0.1,19.566000042855737,39.1,79.45200007572771,7.1,96.3,سد سيدي سعد,SIDI SAAD BARRAGE,القيروان,Kairouan,الوسط الغربي,Centre-Ouest,35.384036,9.694255,0.00
2025-11-23,0,3.6,19.29999993503094,86.5,85.89000000312927,5.5,99.5,القصرين,KASSERINE,القصرين,Kasserine,الوسط الغربي,Centre-Ouest,35.165694,8.826228,0.00
2025-11-23,0,7,21.785416735491406,73.5,90.52083338160685,17.5,88.5,فريانة,FERIANA SM,القصرين,Kasserine,الوسط الغربي,Centre-Ouest,34.947446,8.576477,0.00
2025-11-23,0,4.5,20.108510602661898,125,67.52562637114215,15.5,128.5,فوسانة,FOUSSANA,القصرين,Kasserine,الوسط الغربي,Centre-Ouest,35.351991,8.634512,0.00
2025-11-23,0,3.3,15.917999988943336,20.1,75.06399995610118,4.9,60.9,خنقة الزازية,KHANGUET ZAZIA,القصرين,Kasserine,الوسط الغربي,Centre-Ouest,35.090993,9.124563,0.00
2025-11-23,0,3.5,25.235555455585324,102.5,101.94777768855009,1,36,سبيبة,SBIBA VILLE SM,القصرين,Kasserine,الوسط الغربي,Centre-Ouest,35.228696,9.123125,0.00
2025-11-23,0,2,17.83600006058812,87,76.9520001272857,6,80,سبيطلة,SBEITLA  PAVA,القصرين,Kasserine,الوسط الغربي,Centre-Ouest,35.228696,9.123136,0.00
2025-11-23,0,1,37.968000009506945,61.1,114.33400004789233,0,63.5,تالة,TALA SM,القصرين,Kasserine,الوسط الغربي,Centre-Ouest,35.578792,8.670524,0.00
2025-11-23,0,2,21.465957408255722,73,96.00425527387476,67.5,164.2,سيدي بوزيد,SIDI BOUZID SM,سيدي بوزيد,Sidi Bouzid,الوسط الغربي,Centre-Ouest,34.964999,9.447219,0.00
2025-11-23,0,6,19.72127658794535,23,77.89224291111982,25,179,سيدي علي بن عون,SIDI ALI BEN AOUN,سيدي بوزيد,Sidi Bouzid,الوسط الغربي,Centre-Ouest,34.855194,9.142115,0.00
2025-11-23,0,5,19.979999991953374,37,82.67559188236996,61,165.3,بير الحفي,BIR LAHFAY,سيدي بوزيد,Sidi Bouzid,الوسط الغربي,Centre-Ouest,34.931245,9.196117,0.00
2025-11-23,0,0,15.056000000536441,9,67.9380000565946,2.5,67.5,المكناسي,MEKNASSY GR SM,سيدي بوزيد,Sidi Bouzid,الوسط الغربي,Centre-Ouest,34.919999,8.716511,0.00
2025-11-23,0,4,18.955555544959175,59.5,77.46095041919176,15.5,187.2,الرقاب,REGUEB SM DELEGATION,سيدي بوزيد,Sidi Bouzid,الوسط الغربي,Centre-Ouest,34.847997,9.789227,0.00
2025-11-23,0,1,18.719148917401093,40.5,77.96065877816278,0,82.3,جلمة,JELMA HER,سيدي بوزيد,Sidi Bouzid,الوسط الغربي,Centre-Ouest,35.270999,9.429225,0.00
2025-11-23,0,1.5,12.906249983857077,14,68.20709220890669,8,72,المزونة,MEZZOUNA DISPENSAIRE,سيدي بوزيد,Sidi Bouzid,الوسط الغربي,Centre-Ouest,34.575739,9.847000,0.00
2025-11-23,0,1,39.63469390023728,46,125.73469381946693,19,204,سوسة,SOUSSE PF,سوسة,Sousse,الوسط الشرقي,Centre-Est,35.828981,10.646020,0.00
2025-11-23,0,0,40.263265332397154,29,129.4606173465203,28,175,النفيضة,ENFIDA FORET,سوسة,Sousse,الوسط الشرقي,Centre-Est,36.133633,10.377370,0.00
2025-11-23,0,2,34.61836740374565,25,116.33575679104918,22.5,168.5,مساكن,MSAKEN DELG SM,سوسة,Sousse,الوسط الشرقي,Centre-Est,35.731787,10.577622,0.00
2025-11-23,0,0,42.78297867768622,23,119.71254440912887,18,218,سيدي بوعلي,SIDI BOU ALI,سوسة,Sousse,الوسط الشرقي,Centre-Est,35.957682,10.479071,0.00
2025-11-23,0,1.2,31.704255266392476,124.2,109.03382540196895,13,194.5,الكندار,KUNDAR,سوسة,Sousse,الوسط الشرقي,Centre-Est,35.949137,10.284220,0.00
2025-11-23,0,1,34.68888899270031,26,125.40828309166385,18,220,المنستير,SKANES MONASTIR  SM,المنستير,Monastir,الوسط الشرقي,Centre-Est,35.749873,10.753752,0.00
2025-11-23,0,1,46.23200009793043,51,142.90200024485588,15,296,المكنين,MOKNINE SM,المنستير,Monastir,الوسط الشرقي,Centre-Est,35.626034,10.716228,0.00
2025-11-23,0,1,47.96399999678134,23,141.41399986101655,17,261,طبلبة,TEBOULBA BNE VENNE I,المنستير,Monastir,الوسط الشرقي,Centre-Est,35.635477,10.779221,0.00
2025-11-23,0,3,44.194000003933915,22,141.7249388662102,30,212,جــمال,JEMMEL,المنستير,Monastir,الوسط الشرقي,Centre-Est,35.623779,10.763029,0.00
2025-11-23,0,1,39.37400004833937,20.6,130.5460001730919,11.2,259,المهدية,MAHDIA,المهدية,Mahdia,الوسط الشرقي,Centre-Est,35.518477,11.031220,0.00
2025-11-23,0,6,40.29565222496572,33,128.33444454114218,11.5,234.5,الشابة,CHEBBA MUNICIPALITE,المهدية,Mahdia,الوسط الشرقي,Centre-Est,35.237678,11.115822,0.00
2025-11-23,0,3,22.070833294807624,40,86.28251894056731,17,138,السواسي,SOUASSI,المهدية,Mahdia,الوسط الشرقي,Centre-Est,35.348563,10.544329,0.00
2025-11-23,0,1.5,31.779166597562536,25.2,105.29485804915878,31,177.7,الـــجم,EL JEM SM,المهدية,Mahdia,الوسط الشرقي,Centre-Est,35.296183,10.709476,0.00
2025-11-23,0,6,21.090000054836274,41,84.53599987074735,27.5,130.1,صفاقس,SFAX MAOU SM,صفاقس,Sfax,الوسط الشرقي,Centre-Est,34.716489,10.734221,0.00
2025-11-23,0,7,17.565999994277952,67.5,71.77428579729431,45,179.5,عقارب,AGAREB DELEGATION,صفاقس,Sfax,الوسط الشرقي,Centre-Est,34.740884,10.533074,0.00
2025-11-23,0,5,14.551999994516374,42,68.53000004321335,25,173,بير علي بن خليفة,BIR ALI BEN KHELIFA,صفاقس,Sfax,الوسط الشرقي,Centre-Est,34.737292,10.095218,0.00
2025-11-23,0,18,15.628888911339976,49.5,68.86270533918183,22.5,160.6,الغريبة,EL GHRAIBA,صفاقس,Sfax,الوسط الشرقي,Centre-Est,34.499686,10.221215,0.00
2025-11-23,0,0,23.346938775510203,28,83.28146258503402,19.5,136.5,قرقنة,KERKENEH MELLITTA,صفاقس,Sfax,الوسط الشرقي,Centre-Est,34.642780,11.029420,0.00
2025-11-23,0,4,16.349999984502794,19,75.09400005459788,9,134.5,منزل شاكر,MENZEL CHAKER,صفاقس,Sfax,الوسط الشرقي,Centre-Est,34.556840,10.313026,0.00
2025-11-23,0,4,26.45886526040152,16,95.15210249575082,10,191,الحنشة,HANCHA,صفاقس,Sfax,الوسط الشرقي,Centre-Est,35.122934,10.745022,0.00
2025-11-23,0,3,17.08600006580353,21.2,47.44199998140338,15,48,قفصة,GAFSA 1 SM,قفصة,Gafsa,الجنوب الغربي,Sud-Ouest,34.424999,8.799228,0.00
2025-11-23,0,1,13.858695639864258,69,41.76318214249268,30,87,القطار,EL GUETAR,قفصة,Gafsa,الجنوب الغربي,Sud-Ouest,34.334994,8.925215,0.00
2025-11-23,0,1,16.40000005163576,19,59.3913043194815,16,79.5,السند,ESSNED,قفصة,Gafsa,الجنوب الغربي,Sud-Ouest,34.546493,9.258217,0.00
2025-11-23,0,3,13.82173913101787,21,30.750966183801633,8,58,المنلوي,METLAOUI SM,قفصة,Gafsa,الجنوب الغربي,Sud-Ouest,34.316991,8.421221,0.00
2025-11-23,0,0,18.042857154849028,31,40.23900441812449,1,68.5,الرديف,MOULARES SM,قفصة,Gafsa,الجنوب الغربي,Sud-Ouest,34.361991,8.169228,0.00
2025-11-23,0,2,14.03913041042245,28,76.48241125547835,22,116,سيدي يعيش,REDEYEF  SM,قفصة,Gafsa,الجنوب الغربي,Sud-Ouest,34.710293,8.782128,0.00
2025-11-23,0,3,13.822916609700767,36,40.172695156110855,43.5,70.3,أم العرائس,SIDI AIECH,قفصة,Gafsa,الجنوب الغربي,Sud-Ouest,34.487989,8.295220,0.00
2025-11-23,0,3.5,10.916000046283004,12,26.23199999958276,0,39,توزر,TOZEUR SM,توزر,Tozeur,الجنوب الغربي,Sud-Ouest,32.925131,8.097222,0.00
2025-11-23,0,4.5,14.760000093777974,68.5,30.338142727480037,2.5,53,تمغزة,TAMEGHZA.GN,توزر,Tozeur,الجنوب الغربي,Sud-Ouest,34.379992,7.945848,0.00
2025-11-23,0,4,11.30888894399007,29,22.95202902568064,0,34.5,دقاش,DEGACHE MUNICIPALITE,توزر,Tozeur,الجنوب الغربي,Sud-Ouest,32.983992,8.239419,0.00
2025-11-23,0,3.5,11.968085119064819,20.5,24.467298811620356,0,34.5,نفطة,NEFTA,توزر,Tozeur,الجنوب الغربي,Sud-Ouest,32.859794,7.907325,0.00
2025-11-23,0,0,9.160465135823848,1,24.38694507923237,0,42,قبلي,KEBILI SE,قبلي,Kébili,الجنوب الغربي,Sud-Ouest,32.704992,8.979226,0.00
2025-11-23,0,1,7.867499973252414,9,19.429105716793615,0,0,الفوار,EL FAOUR DOUZ,قبلي,Kébili,الجنوب الغربي,Sud-Ouest,32.370194,8.668720,0.00
2025-11-23,0,8.5,7.482499976456165,14.5,22.4930807075659,0,44.8,دوز,DOUZ CRDA SM,قبلي,Kébili,الجنوب الغربي,Sud-Ouest,32.461996,9.024224,0.00
2025-11-23,0,1.5,22.302040843179036,15.5,78.18714255947845,0,81.5,قابس,GABES SM,قابس,Gabès,الجنوب الشرقي,Sud-Est,32.857991,10.108727,0.00
2025-11-23,0,0,10.212500013783576,14,43.9299999354407,0,46.5,الحامة,EL HAMMA PV,قابس,Gabès,الجنوب الشرقي,Sud-Est,32.844495,9.816229,0.00
2025-11-23,0,2,20.382051239793114,13,61.4564102175526,0,128,المطوية,METOUIA SM,قابس,Gabès,الجنوب الشرقي,Sud-Est,32.957894,10.036720,0.00
2025-11-23,0,15,22.157142834395778,28,54.24673474496724,0,56,مطماطة,MATMATA DELEGATION,قابس,Gabès,الجنوب الشرقي,Sud-Est,32.542987,9.987223,0.00
2025-11-23,0,14.8,16.955999945402144,23.4,51.17200025558472,0,60.599999999999994,مدنين,MEDENINE 1 SM,مدنين,Médenine,الجنوب الشرقي,Sud-Est,32.335986,10.500219,0.00
2025-11-23,0,3,21.300000068254594,13.5,51.05853649937527,0,42.8,بني خداش,BENI KHEDECHE,مدنين,Médenine,الجنوب الشرقي,Sud-Est,32.245991,10.203218,0.00
2025-11-23,0,0.8999999999999999,26.814285726267467,36.9,63.9209626738831,0,33.5,بن قردان,BEN GUERDANE 1 SM,مدنين,Médenine,الجنوب الشرقي,Sud-Est,32.160484,10.770229,0.00
2025-11-23,0,2.9,33.3224488680764,60.5,83.54842686629377,0,31,جرجيس,ZARZIS VILLE SE 2,مدنين,Médenine,الجنوب الشرقي,Sud-Est,32.497974,11.117350,0.00
2025-11-23,0,20,29.634000088721514,47.5,83.83869390221275,4,63.5,جربة حومة السوق,JERBA EL MAY SM,مدنين,Médenine,الجنوب الشرقي,Sud-Est,32.799485,10.887131,0.00
2025-11-23,0,0,12.316490513404503,9,30.638581002878098,0,72.6,تطاوين,TATAOUINE SM,تطاوين,Tataouine,الجنوب الشرقي,Sud-Est,32.927392,10.451446,0.00
2025-11-23,0,7,14.258139550685883,12,30.825047892602388,0,40.199999999999996,غمراسن,"GHOMRASSEN DELEG,",تطاوين,Tataouine,الجنوب الشرقي,Sud-Est,32.065988,10.347224,0.00
2025-11-22,4,28.8,45.510000077486026,104.89999999999999,111.87200002029545,15.899999999999999,75.19999999999999,جندوبة,JENDOUBA,جندوبة,Jendouba,الشمال الغربي,Nord-Ouest,36.499091,8.794007,0.00
2025-11-22,11.8,34.6,45.78666673815912,59.1,108.50000008311541,9,48.6,بوسالم,BOUSALEM DRE,جندوبة,Jendouba,الشمال الغربي,Nord-Ouest,36.599846,8.968515,0.00
2025-11-22,0,27.5,46.61428573697197,112.5,104.62448982362235,5,73.5,غار الدماء,GHARDIMAOU DRE,جندوبة,Jendouba,الشمال الغربي,Nord-Ouest,36.450446,8.432837,0.00
2025-11-22,46,268,202.26000009849665,382,366.56599999308577,83,276,عين دراهم,AIN DRAHEM,جندوبة,Jendouba,الشمال الغربي,Nord-Ouest,36.774894,8.683128,0.00
2025-11-22,32,153.2,144.5240003156662,261.6,264.54200037434697,104.6,265.2,طبرقة,TABARKA,جندوبة,Jendouba,الشمال الغربي,Nord-Ouest,36.913855,8.747206,0.00
2025-11-22,21.7,81.7,89.87111116995413,112.1,163.7522226158793,29.5,127.69999999999999,سد بوهرتمة,BOUHERTMA,جندوبة,Jendouba,الشمال الغربي,Nord-Ouest,36.674092,8.784465,0.00
2025-11-22,9,40.2,64.85624996122594,99.80000000000001,145.79829928947638,33.199999999999996,118.6,بــاجة,BEJA,باجة,Béja,الشمال الغربي,Nord-Ouest,36.722242,9.204225,0.00
2025-11-22,0,2,40.506521696143814,57,110.286956437418,6,97.5,مجاز الباب,MEJEZ EL BAB,باجة,Béja,الشمال الغربي,Nord-Ouest,36.650691,9.604720,0.00
2025-11-22,35,174,144.63469381934527,266,249.71017861251752,106,265,نفزة,NEFSA DELEG,باجة,Béja,الشمال الغربي,Nord-Ouest,36.976043,9.082727,0.00
2025-11-22,1,5.1,43.77916662410523,64.2,111.31006197413392,12.499999999999998,94.9,سد سيدي سالم,BARRAGE SIDI SALEM,باجة,Béja,الشمال الغربي,Nord-Ouest,36.557991,9.402219,0.00
2025-11-22,7,21,55.52599993288517,98,130.43326522723757,8.5,76,تبرسق,TEBOURSOUK,باجة,Béja,الشمال الغربي,Nord-Ouest,36.458999,9.249223,0.00
2025-11-22,10,35,56.911999935954796,88,134.01338772726604,17,77,تيبار,TIBAR SM,باجة,Béja,الشمال الغربي,Nord-Ouest,36.521995,9.105227,0.00
2025-11-22,0,3.1,38.328571455971314,52.300000000000004,101.79183689170347,13.8,119.2,الكاف,KEF CMA,الكاف,Le Kef,الشمال الغربي,Nord-Ouest,36.131399,8.744326,0.00
2025-11-22,0,6.9,28.126530658225633,58.099999999999994,83.91632641061224,3.5,86.60000000000001,سد ملاق,O.MELLEGUE K13,الكاف,Le Kef,الشمال الغربي,Nord-Ouest,36.323991,8.709228,0.00
2025-11-22,1,8,46.72222229904599,77.2,113.06222224930922,8.5,106.8,ساقية سيدي يوسف,SAKIET SIDI YOUSSEF SM,الكاف,Le Kef,الشمال الغربي,Nord-Ouest,36.233272,8.367319,0.00
2025-11-22,0,2,37.98444452136754,97.5,102.03111116157639,1,55,قلعة سنان,KALAAT ESSENAM DELEG,الكاف,Le Kef,الشمال الغربي,Nord-Ouest,35.765992,8.340220,0.00
2025-11-22,0,2,34.901999956369394,76.5,99.20599999457596,2.5,44.5,القصور,KSOUR ECOLE,الكاف,Le Kef,الشمال الغربي,Nord-Ouest,35.900994,8.793994,0.00
2025-11-22,0,2,35.78372094381687,78.5,108.42325584417166,2,68.5,السرس,SERS DELEGATION,الكاف,Le Kef,الشمال الغربي,Nord-Ouest,36.066600,9.037090,0.00
2025-11-22,0,4,35.973784329019196,54,100.55883490016463,9.5,66.5,تاجروين,TEJROUINE,الكاف,Le Kef,الشمال الغربي,Nord-Ouest,35.936996,8.491428,0.00
2025-11-22,0,0,35.347999961078166,77,113.00799996197222,16,102,سليانة,SILIANA AGRICOLE,سليانة,Siliana,الشمال الغربي,Nord-Ouest,36.085492,9.366221,0.00
2025-11-22,0,5,39.177550981087336,52,114.75510207502813,19,78,بوعرادة,BOU ARADA II,سليانة,Siliana,الشمال الغربي,Nord-Ouest,36.349643,9.625698,0.00
2025-11-22,0,25,51.62997443208686,82,116.37691326069385,22,122,الكريب,KRIB FERME COSSEM,سليانة,Siliana,الشمال الغربي,Nord-Ouest,36.319045,9.137629,0.00
2025-11-22,0,3,24.127500036358832,42,90.64670743317134,6,49,الروحية,ROHIA,سليانة,Siliana,الشمال الغربي,Nord-Ouest,35.651694,9.060217,0.00
2025-11-22,0,10,49.06530605864768,119,145.2957549822057,40,136,سعدية برقو,SAADIA DU BARGOU SM,سليانة,Siliana,الشمال الغربي,Nord-Ouest,36.035998,9.600219,0.00
2025-11-22,0,2,35.603528871688816,57,118.30642002092067,18,89,سد الأخماس,BARRAGE LAKHMES,سليانة,Siliana,الشمال الغربي,Nord-Ouest,36.074696,9.373423,0.00
2025-11-22,0,3,41.77199993729591,104,130.4759999991953,9,47,مكثر,MAKTAR PF,سليانة,Siliana,الشمال الغربي,Nord-Ouest,35.853203,9.204221,0.00
2025-11-22,0,1,52.775999996215106,28,137.65999999731775,32.8,81.19999999999999,تونس قرطاج,TUNIS CARTHAGE SM,تونس,Tunis,الشمال الشرقي,Nord-Est,36.834284,10.248223,0.00
2025-11-22,3,9.5,52.87799990385771,48.2,134.36200010702015,5.3,52.8,تونس المنوبية,TUNIS MANOUBIA,منوبة,Manouba,الشمال الشرقي,Nord-Est,36.784336,10.173078,0.00
2025-11-22,4,8,53.80200001418591,37,139.85200002878904,16,68,أريانة,ARIANA CENTRE D'ETUD,أريانة,Ariana,الشمال الشرقي,Nord-Est,36.848147,10.178561,0.00
2025-11-22,7,19,52.92553198369261,118,123.01407317670822,8,64,سيدي ثابت,SIDI THABET,أريانة,Ariana,الشمال الشرقي,Nord-Est,36.912718,10.041491,0.00
2025-11-22,9,19,61.84042559294625,75,140.33868053181536,58,144,قلعة الأندلس,Kalaat Andalos,أريانة,Ariana,الشمال الشرقي,Nord-Est,37.033000,10.114000,0.00
2025-11-22,0,12.5,47.504166692495346,55.5,124.71190478684389,13.5,89.5,منوبة,MANOUBA,منوبة,Manouba,الشمال الشرقي,Nord-Est,36.782991,10.077219,0.00
2025-11-22,0,1,42.56734696395543,66.5,119.98065304697472,13,119,برج العامري,BORJ EL AMRI,منوبة,Manouba,الشمال الشرقي,Nord-Est,36.715495,9.886868,0.00
2025-11-22,0,3,38.3120000204444,47,110.22861232971657,25,66,البطان,BATANE OMVVM,منوبة,Manouba,الشمال الشرقي,Nord-Est,36.796724,9.849985,0.00
2025-11-22,8,14.5,52.25399990543725,61.5,134.68399990275503,0,84.5,بن عروس,BEN AROUS MUNICIP.,بن عروس,Ben Arous,الشمال الشرقي,Nord-Est,36.720884,10.267123,0.00
2025-11-22,1,10,57.7812500364768,62,133.41674393078767,11,100,برج السدرية,BORJ CEDRIA,بن عروس,Ben Arous,الشمال الشرقي,Nord-Est,36.663282,10.328322,0.00
2025-11-22,16,28,47.944192004632775,75,134.95937276306086,19,96,الخليدية,EL KHELIDIA,بن عروس,Ben Arous,الشمال الشرقي,Nord-Est,36.637193,10.194221,0.00
2025-11-22,0,4,50.103755042519495,35.2,129.88375514965887,43.5,223,نابل,NABEUL SM,نابل,Nabeul,الشمال الشرقي,Nord-Est,36.443677,10.750420,0.00
2025-11-22,0,16.5,68.15999990403652,74,165.84673425016965,23.5,207,قليبية,KELIBIA SM,نابل,Nabeul,الشمال الشرقي,Nord-Est,36.855421,11.096021,0.00
2025-11-22,0,10,50.851020337975754,40,143.65106114916054,15,185,قربة,KORBA SM,نابل,Nabeul,الشمال الشرقي,Nord-Est,36.578677,10.859311,0.00
2025-11-22,0,4,63.729999993443485,31,153.95199994370338,38,155,منزل بوزلفة,MENZEL BOUZELFA,نابل,Nabeul,الشمال الشرقي,Nord-Est,36.681733,10.583916,0.00
2025-11-22,0,5,62.28599998354912,54.5,152.5539184315533,30,186,قرمبالية,GROMBALIA DRE,نابل,Nabeul,الشمال الشرقي,Nord-Est,36.578234,10.479524,0.00
2025-11-22,0,17.5,85.34651151923246,99.5,167.06976697299373,83,297.5,الهوارية,HAOUARIA DELEG  SM,نابل,Nabeul,الشمال الشرقي,Nord-Est,37.035877,11.012778,0.00
2025-11-22,0,5.5,55.959999951273204,35,149.87000004276638,54,174,الحمامات,HAMMAMET SM PF,نابل,Nabeul,الشمال الشرقي,Nord-Est,36.412631,10.603728,0.00
2025-11-22,0,4,48.80612251344993,52,137.59371451781112,89,270.5,زغوان,ZAGHOUAN,زغوان,Zaghouan,الشمال الشرقي,Nord-Est,36.397791,10.145620,0.00
2025-11-22,0,2,38.387499963243805,103.6,120.4984042538389,43,180,الفحص,PT DU FAHS SM,زغوان,Zaghouan,الشمال الشرقي,Nord-Est,36.352341,9.895514,0.00
2025-11-22,0,2.5,36.933999831676495,34,118.5276325288597,42,130.5,سد بئر مشارقة,BIR MECHARGA BGE,زغوان,Zaghouan,الشمال الشرقي,Nord-Est,36.509391,10.024123,0.00
2025-11-22,0,2,38.07321430737672,68,119.92912423985743,33,147,صواف,SAOUAF,زغوان,Zaghouan,الشمال الشرقي,Nord-Est,36.229041,10.174420,0.00
2025-11-22,0,0,36.20000005796552,52,109.14599999696017,0,64,الجبيبنة 3 النظور,DJEBIBINA YABSA(NADHOR),زغوان,Zaghouan,الشمال الشرقي,Nord-Est,36.114288,10.097478,0.00
2025-11-22,11.4,77.60000000000001,89.9000001746416,140.9,175.38020022749893,69.60000000000001,122.9,بنزرت سيدي أحمد,SIDI AHMED SM BIZERTE,بنزرت,Bizerte,الشمال الشرقي,Nord-Est,37.232990,9.782023,0.00
2025-11-22,16.5,59,84.61224492350405,172.2,158.31428575454916,41.5,108.4,تينجة,TINJA HER,بنزرت,Bizerte,الشمال الشرقي,Nord-Est,37.171789,9.757906,0.00
2025-11-22,19,60.5,86.70869566111462,153.2,162.1766419380172,53.3,87.5,راس الجبل,RAS JEBEL,بنزرت,Bizerte,الشمال الشرقي,Nord-Est,37.214993,10.126721,0.00
2025-11-22,13,58,68.2760627241615,220,129.11075682139827,37,140.5,العالية,EL ALIA SE,بنزرت,Bizerte,الشمال الشرقي,Nord-Est,37.166386,10.037618,0.00
2025-11-22,32,49.6,67.87600010886788,174.1,148.09600021377204,29,88,ماطر,SIDI MBAREK (MATEUR),بنزرت,Bizerte,الشمال الشرقي,Nord-Est,37.021497,9.663226,0.00
2025-11-22,40,101,89.82857149748173,153,170.565306221344,63,131,جومين,DJOUMIN DELEGATION,بنزرت,Bizerte,الشمال الشرقي,Nord-Est,36.926992,9.388721,0.00
2025-11-22,45,154.5,124.1380000579357,210.3,220.69693872395825,84,199.8,سجنان,SEJENANE DELG,بنزرت,Bizerte,الشمال الشرقي,Nord-Est,37.059741,9.246079,0.00
2025-11-22,0,0.6,26.908000009655943,47.4,105.92400013342501,10,120.6,القيروان,KAIROUAN SM,القيروان,Kairouan,الوسط الغربي,Centre-Ouest,35.675988,10.104229,0.00
2025-11-22,0,3,22.812195251627664,40.5,114.76341492192046,9.5,78.5,حفوز,HAFFOUZ DRE,القيروان,Kairouan,الوسط الغربي,Centre-Ouest,35.635497,9.676719,0.00
2025-11-22,0,0,26.67317077444821,37,95.25121939509381,41,137,سد نبهانة,NEBHANA BARRAGE,القيروان,Kairouan,الوسط الغربي,Centre-Ouest,35.392496,9.700119,0.00
2025-11-22,0,0,30.150000100800145,75.5,124.7589983132186,20,69.5,الوسلاتية,OUSLATIA INRAT,القيروان,Kairouan,الوسط الغربي,Centre-Ouest,35.774996,9.591225,0.00
2025-11-22,0,0,28.635999981462952,71,116.47000000819563,45.5,155.5,السبيخة,SBIKHA,القيروان,Kairouan,الوسط الغربي,Centre-Ouest,35.918093,10.035820,0.00
2025-11-22,0,0,22.021469411418146,35.5,86.32351024970716,35,86,سيدي عمر بوحجلة,SIDI AMOR BOUHAJLA,القيروان,Kairouan,الوسط الغربي,Centre-Ouest,35.395191,10.057861,0.00
2025-11-22,0,0.1,19.566000042855737,39.1,79.15200007751585,7.1,96.3,سد سيدي سعد,SIDI SAAD BARRAGE,القيروان,Kairouan,الوسط الغربي,Centre-Ouest,35.384036,9.694255,0.00
2025-11-22,0,3.6,19.29999993503094,86.5,85.07800000920895,5.5,99.5,القصرين,KASSERINE,القصرين,Kasserine,الوسط الغربي,Centre-Ouest,35.165694,8.826228,0.00
2025-11-22,0,7,21.785416735491406,73.5,89.43125004429987,17.5,88.5,فريانة,FERIANA SM,القصرين,Kasserine,الوسط الغربي,Centre-Ouest,34.947446,8.576477,0.00
2025-11-22,0,4.5,20.108510602661898,125,67.10009445624854,15.5,128.5,فوسانة,FOUSSANA,القصرين,Kasserine,الوسط الغربي,Centre-Ouest,35.351991,8.634512,0.00
2025-11-22,0,3.3,15.917999988943336,20.1,74.36599997654558,4.9,60.9,خنقة الزازية,KHANGUET ZAZIA,القصرين,Kasserine,الوسط الغربي,Centre-Ouest,35.090993,9.124563,0.00
2025-11-22,0,3.5,25.235555455585324,102.5,100.69222213696818,1,36,سبيبة,SBIBA VILLE SM,القصرين,Kasserine,الوسط الغربي,Centre-Ouest,35.228696,9.123125,0.00
2025-11-22,0,2,17.83600006058812,87,75.72200010821221,6,80,سبيطلة,SBEITLA  PAVA,القصرين,Kasserine,الوسط الغربي,Centre-Ouest,35.228696,9.123136,0.00
2025-11-22,0,1,37.968000009506945,61.1,112.6160000216961,0,63.5,تالة,TALA SM,القصرين,Kasserine,الوسط الغربي,Centre-Ouest,35.578792,8.670524,0.00
2025-11-22,0,2,21.465957408255722,73,94.86382973891622,67.5,164.2,سيدي بوزيد,SIDI BOUZID SM,سيدي بوزيد,Sidi Bouzid,الوسط الغربي,Centre-Ouest,34.964999,9.447219,0.00
2025-11-22,0,6,19.72127658794535,23,77.5199024855879,25,179,سيدي علي بن عون,SIDI ALI BEN AOUN,سيدي بوزيد,Sidi Bouzid,الوسط الغربي,Centre-Ouest,34.855194,9.142115,0.00
2025-11-22,0,5,19.979999991953374,37,81.60559188236996,61,165.3,بير الحفي,BIR LAHFAY,سيدي بوزيد,Sidi Bouzid,الوسط الغربي,Centre-Ouest,34.931245,9.196117,0.00
2025-11-22,0,0,15.056000000536441,9,67.2860000489652,2.5,67.5,المكناسي,MEKNASSY GR SM,سيدي بوزيد,Sidi Bouzid,الوسط الغربي,Centre-Ouest,34.919999,8.716511,0.00
2025-11-22,0,4,18.955555544959175,59.5,76.66095041919176,15.5,187.2,الرقاب,REGUEB SM DELEGATION,سيدي بوزيد,Sidi Bouzid,الوسط الغربي,Centre-Ouest,34.847997,9.789227,0.00
2025-11-22,0,1,18.719148917401093,40.5,77.49257367177981,0,82.3,جلمة,JELMA HER,سيدي بوزيد,Sidi Bouzid,الوسط الغربي,Centre-Ouest,35.270999,9.429225,0.00
2025-11-22,0,1.5,12.906249983857077,14,67.67375887756018,8,72,المزونة,MEZZOUNA DISPENSAIRE,سيدي بوزيد,Sidi Bouzid,الوسط الغربي,Centre-Ouest,34.575739,9.847000,0.00
2025-11-22,0,1,39.63469390023728,46,123.52857136239814,19,204,سوسة,SOUSSE PF,سوسة,Sousse,الوسط الشرقي,Centre-Est,35.828981,10.646020,0.00
2025-11-22,0,0,40.263265332397154,29,127.6626581696588,28,175,النفيضة,ENFIDA FORET,سوسة,Sousse,الوسط الشرقي,Centre-Est,36.133633,10.377370,0.00
2025-11-22,0,2,34.61836740374565,25,115.16228740329407,22.5,168.5,مساكن,MSAKEN DELG SM,سوسة,Sousse,الوسط الشرقي,Centre-Est,35.731787,10.577622,0.00
2025-11-22,0,0,42.78297867768622,23,119.35722526044633,18,218,سيدي بوعلي,SIDI BOU ALI,سوسة,Sousse,الوسط الشرقي,Centre-Est,35.957682,10.479071,0.00
2025-11-22,0,1.2,31.704255266392476,124.2,108.18276157218172,13,194.5,الكندار,KUNDAR,سوسة,Sousse,الوسط الشرقي,Centre-Est,35.949137,10.284220,0.00
2025-11-22,0,1,34.68888899270031,26,124.48161641599026,18,220,المنستير,SKANES MONASTIR  SM,المنستير,Monastir,الوسط الشرقي,Centre-Est,35.749873,10.753752,0.00
2025-11-22,0,1,46.23200009793043,51,141.37400024294854,15,296,المكنين,MOKNINE SM,المنستير,Monastir,الوسط الشرقي,Centre-Est,35.626034,10.716228,0.00
2025-11-22,0,1,47.96399999678134,23,139.27399986101656,17,261,طبلبة,TEBOULBA BNE VENNE I,المنستير,Monastir,الوسط الشرقي,Centre-Est,35.635477,10.779221,0.00
2025-11-22,0,3,44.194000003933915,22,139.85093886525652,27,209,جــمال,JEMMEL,المنستير,Monastir,الوسط الشرقي,Centre-Est,35.623779,10.763029,0.00
2025-11-22,0,1,39.37400004833937,20.6,130.2260001730919,9.2,257,المهدية,MAHDIA,المهدية,Mahdia,الوسط الشرقي,Centre-Est,35.518477,11.031220,0.00
2025-11-22,0,6,40.29565222496572,33,127.98227063224512,11,234,الشابة,CHEBBA MUNICIPALITE,المهدية,Mahdia,الوسط الشرقي,Centre-Est,35.237678,11.115822,0.00
2025-11-22,0,3,22.070833294807624,40,85.68251894031896,17,138,السواسي,SOUASSI,المهدية,Mahdia,الوسط الشرقي,Centre-Est,35.348563,10.544329,0.00
2025-11-22,0,1.5,31.779166597562536,25.2,104.61360804816536,24,170.7,الـــجم,EL JEM SM,المهدية,Mahdia,الوسط الشرقي,Centre-Est,35.296183,10.709476,0.00
2025-11-22,0,6,21.090000054836274,41,83.83599987789991,8,110.6,صفاقس,SFAX MAOU SM,صفاقس,Sfax,الوسط الشرقي,Centre-Est,34.716489,10.734221,0.00
2025-11-22,0,7,17.565999994277952,67.5,71.1542857972943,31,165.5,عقارب,AGAREB DELEGATION,صفاقس,Sfax,الوسط الشرقي,Centre-Est,34.740884,10.533074,0.00
2025-11-22,0,5,14.551999994516374,42,68.08000004321335,25,173,بير علي بن خليفة,BIR ALI BEN KHELIFA,صفاقس,Sfax,الوسط الشرقي,Centre-Est,34.737292,10.095218,0.00
2025-11-22,0,18,15.628888911339976,49.5,68.20048311272106,22.5,160.6,الغريبة,EL GHRAIBA,صفاقس,Sfax,الوسط الشرقي,Centre-Est,34.499686,10.221215,0.00
2025-11-22,0,0,23.346938775510203,28,82.93452380952381,16,133,قرقنة,KERKENEH MELLITTA,صفاقس,Sfax,الوسط الشرقي,Centre-Est,34.642780,11.029420,0.00
2025-11-22,0,4,16.349999984502794,19,74.59000005841258,9,134.5,منزل شاكر,MENZEL CHAKER,صفاقس,Sfax,الوسط الشرقي,Centre-Est,34.556840,10.313026,0.00
2025-11-22,0,4,26.45886526040152,16,94.75848547447423,4,185,الحنشة,HANCHA,صفاقس,Sfax,الوسط الشرقي,Centre-Est,35.122934,10.745022,0.00
2025-11-22,0,3,17.08600006580353,21.2,47.39999998092654,15,48,قفصة,GAFSA 1 SM,قفصة,Gafsa,الجنوب الغربي,Sud-Ouest,34.424999,8.799228,0.00
2025-11-22,0,1,13.858695639864258,69,41.65448649031877,30,87,القطار,EL GUETAR,قفصة,Gafsa,الجنوب الغربي,Sud-Ouest,34.334994,8.925215,0.00
2025-11-22,0,1,16.40000005163576,19,58.793478232524976,16,79.5,السند,ESSNED,قفصة,Gafsa,الجنوب الغربي,Sud-Ouest,34.546493,9.258217,0.00
2025-11-22,0,3,13.82173913101787,21,29.974879210694255,8,58,المنلوي,METLAOUI SM,قفصة,Gafsa,الجنوب الغربي,Sud-Ouest,34.316991,8.421221,0.00
2025-11-22,0,0,18.042857154849028,31,40.115194894244006,1,68.5,الرديف,MOULARES SM,قفصة,Gafsa,الجنوب الغربي,Sud-Ouest,34.361991,8.169228,0.00
2025-11-22,0,2,14.03913041042245,28,76.23241125547835,22,116,سيدي يعيش,REDEYEF  SM,قفصة,Gafsa,الجنوب الغربي,Sud-Ouest,34.710293,8.782128,0.00
2025-11-22,0,3,13.822916609700767,36,39.645611838672096,43.5,70.3,أم العرائس,SIDI AIECH,قفصة,Gafsa,الجنوب الغربي,Sud-Ouest,34.487989,8.295220,0.00
2025-11-22,0,3.5,10.916000046283004,12,25.821999992430204,0,39,توزر,TOZEUR SM,توزر,Tozeur,الجنوب الغربي,Sud-Ouest,32.925131,8.097222,0.00
2025-11-22,0,4.5,14.760000093777974,68.5,30.034809393351974,2.5,53,تمغزة,TAMEGHZA.GN,توزر,Tozeur,الجنوب الغربي,Sud-Ouest,34.379992,7.945848,0.00
2025-11-22,0,4,11.30888894399007,29,22.78091791483444,0,34.5,دقاش,DEGACHE MUNICIPALITE,توزر,Tozeur,الجنوب الغربي,Sud-Ouest,32.983992,8.239419,0.00
2025-11-22,0,3.5,11.968085119064819,20.5,24.05878817230794,0,34.5,نفطة,NEFTA,توزر,Tozeur,الجنوب الغربي,Sud-Ouest,32.859794,7.907325,0.00
2025-11-22,0,0,9.160465135823848,1,24.3125264767644,0,42,قبلي,KEBILI SE,قبلي,Kébili,الجنوب الغربي,Sud-Ouest,32.704992,8.979226,0.00
2025-11-22,0,1,7.867499973252414,9,19.391605716048556,0,0,الفوار,EL FAOUR DOUZ,قبلي,Kébili,الجنوب الغربي,Sud-Ouest,32.370194,8.668720,0.00
2025-11-22,0,8.5,7.482499976456165,14.5,22.450580706373806,0,44.8,دوز,DOUZ CRDA SM,قبلي,Kébili,الجنوب الغربي,Sud-Ouest,32.461996,9.024224,0.00
2025-11-22,0,1.5,22.302040843179036,15.5,77.34632624626765,0,81.5,قابس,GABES SM,قابس,Gabès,الجنوب الشرقي,Sud-Est,32.857991,10.108727,0.00
2025-11-22,0,0,10.212500013783576,14,43.78999993186442,0,46.5,الحامة,EL HAMMA PV,قابس,Gabès,الجنوب الشرقي,Sud-Est,32.844495,9.816229,0.00
2025-11-22,0,2,20.382051239793114,13,61.30769226394401,0,128,المطوية,METOUIA SM,قابس,Gabès,الجنوب الشرقي,Sud-Est,32.957894,10.036720,0.00
2025-11-22,0,15,22.157142834395778,28,53.8344898509006,0,56,مطماطة,MATMATA DELEGATION,قابس,Gabès,الجنوب الشرقي,Sud-Est,32.542987,9.987223,0.00
2025-11-22,0,14.8,16.955999945402144,23.4,51.09200025483966,0,60.599999999999994,مدنين,MEDENINE 1 SM,مدنين,Médenine,الجنوب الشرقي,Sud-Est,32.335986,10.500219,0.00
2025-11-22,0,3,21.300000068254594,13.5,51.05853649937527,0,42.8,بني خداش,BENI KHEDECHE,مدنين,Médenine,الجنوب الشرقي,Sud-Est,32.245991,10.203218,0.00
2025-11-22,0,0.8999999999999999,26.814285726267467,36.9,63.869942265719835,0,33.5,بن قردان,BEN GUERDANE 1 SM,مدنين,Médenine,الجنوب الشرقي,Sud-Est,32.160484,10.770229,0.00
2025-11-22,0,2.9,33.3224488680764,60.5,83.2198554387563,0,31,جرجيس,ZARZIS VILLE SE 2,مدنين,Médenine,الجنوب الشرقي,Sud-Est,32.497974,11.117350,0.00
2025-11-22,0,20,29.634000088721514,47.5,83.32069390388169,0,59.5,جربة حومة السوق,JERBA EL MAY SM,مدنين,Médenine,الجنوب الشرقي,Sud-Est,32.799485,10.887131,0.00
2025-11-22,0,0,12.316490513404503,9,30.399944639241735,0,72.6,تطاوين,TATAOUINE SM,تطاوين,Tataouine,الجنوب الشرقي,Sud-Est,32.927392,10.451446,0.00
2025-11-22,0,7,14.258139550685883,12,30.464582777362935,0,40.199999999999996,غمراسن,"GHOMRASSEN DELEG,",تطاوين,Tataouine,الجنوب الشرقي,Sud-Est,32.065988,10.347224,0.00
2025-11-22,0,0,7.592857174397934,1,22.403211549852674,0,30.7,رمادة,REMADA SM,تطاوين,Tataouine,الجنوب الشرقي,Sud-Est,32.315391,10.403298,0.00
2025-11-21,0.8,24.8,45.510000077486026,100.89999999999999,110.58400003358729,15.899999999999999,75.19999999999999,جندوبة,JENDOUBA,جندوبة,Jendouba,الشمال الغربي,Nord-Ouest,36.499091,8.794007,0.00
2025-11-21,1.8,22.8,45.78666673815912,47.3,106.866666761703,7.5,47.1,بوسالم,BOUSALEM DRE,جندوبة,Jendouba,الشمال الغربي,Nord-Ouest,36.599846,8.968515,0.00
2025-11-21,0.5,27.5,46.61428573697197,112.5,102.97346942202776,5,73.5,غار الدماء,GHARDIMAOU DRE,جندوبة,Jendouba,الشمال الغربي,Nord-Ouest,36.450446,8.432837,0.00
2025-11-21,32,222,202.26000009849665,336,355.6059999948739,63,256,عين دراهم,AIN DRAHEM,جندوبة,Jendouba,الشمال الغربي,Nord-Ouest,36.774894,8.683128,0.00
2025-11-21,56,121.2,144.5240003156662,229.60000000000002,257.7900003613532,95,255.6,طبرقة,TABARKA,جندوبة,Jendouba,الشمال الغربي,Nord-Ouest,36.913855,8.747206,0.00
2025-11-21,10.7,60,89.87111116995413,90.4,159.75444479359672,28.1,126.29999999999998,سد بوهرتمة,BOUHERTMA,جندوبة,Jendouba,الشمال الغربي,Nord-Ouest,36.674092,8.784465,0.00
2025-11-21,4.4,31.200000000000003,64.85624996122594,90.80000000000001,143.18579928873132,28.4,113.80000000000001,بــاجة,BEJA,باجة,Béja,الشمال الغربي,Nord-Ouest,36.722242,9.204225,0.00
2025-11-21,1,2,40.506521696143814,57,109.03260860899869,6,97.5,مجاز الباب,MEJEZ EL BAB,باجة,Béja,الشمال الغربي,Nord-Ouest,36.650691,9.604720,0.00
2025-11-21,50,139,144.63469381934527,231,243.60405615283344,97,256,نفزة,NEFSA DELEG,باجة,Béja,الشمال الغربي,Nord-Ouest,36.976043,9.082727,0.00
2025-11-21,0,4.1,43.77916662410523,63.2,109.78089530796396,10.899999999999999,93.30000000000001,سد سيدي سالم,BARRAGE SIDI SALEM,باجة,Béja,الشمال الغربي,Nord-Ouest,36.557991,9.402219,0.00
2025-11-21,2,14,55.52599993288517,91,127.93526521579346,8.5,76,تبرسق,TEBOURSOUK,باجة,Béja,الشمال الغربي,Nord-Ouest,36.458999,9.249223,0.00
2025-11-21,1,25,56.911999935954796,78,131.5973877410347,10,70,تيبار,TIBAR SM,باجة,Béja,الشمال الغربي,Nord-Ouest,36.521995,9.105227,0.00
2025-11-21,0,3.1,38.328571455971314,52.300000000000004,100.68163279352748,13.8,119.2,الكاف,KEF CMA,الكاف,Le Kef,الشمال الغربي,Nord-Ouest,36.131399,8.744326,0.00
2025-11-21,0,6.9,28.126530658225633,58.099999999999994,83.66122436979592,3.5,86.60000000000001,سد ملاق,O.MELLEGUE K13,الكاف,Le Kef,الشمال الغربي,Nord-Ouest,36.323991,8.709228,0.00
2025-11-21,0,7,46.72222229904599,76.2,111.69777780936823,8.5,106.8,ساقية سيدي يوسف,SAKIET SIDI YOUSSEF SM,الكاف,Le Kef,الشمال الغربي,Nord-Ouest,36.233272,8.367319,0.00
2025-11-21,0,2,37.98444452136754,97.5,100.66000005470383,1,55,قلعة سنان,KALAAT ESSENAM DELEG,الكاف,Le Kef,الشمال الغربي,Nord-Ouest,35.765992,8.340220,0.00
2025-11-21,0,2,34.901999956369394,76.5,97.98999999552963,2.5,44.5,القصور,KSOUR ECOLE,الكاف,Le Kef,الشمال الغربي,Nord-Ouest,35.900994,8.793994,0.00
2025-11-21,0,2,35.78372094381687,78.5,107.65116281980693,2,68.5,السرس,SERS DELEGATION,الكاف,Le Kef,الشمال الغربي,Nord-Ouest,36.066600,9.037090,0.00
2025-11-21,0,4,35.973784329019196,54,98.84519851810501,9.5,66.5,تاجروين,TEJROUINE,الكاف,Le Kef,الشمال الغربي,Nord-Ouest,35.936996,8.491428,0.00
2025-11-21,0,0,35.347999961078166,77,111.68199995815752,16,102,سليانة,SILIANA AGRICOLE,سليانة,Siliana,الشمال الغربي,Nord-Ouest,36.085492,9.366221,0.00
2025-11-21,0,5,39.177550981087336,52,113.57142860564038,19,78,بوعرادة,BOU ARADA II,سليانة,Siliana,الشمال الغربي,Nord-Ouest,36.349643,9.625698,0.00
2025-11-21,0,25,51.62997443208686,82,114.67283162317511,22,122,الكريب,KRIB FERME COSSEM,سليانة,Siliana,الشمال الغربي,Nord-Ouest,36.319045,9.137629,0.00
2025-11-21,0,3,24.127500036358832,42,89.68420743317134,6,49,الروحية,ROHIA,سليانة,Siliana,الشمال الغربي,Nord-Ouest,35.651694,9.060217,0.00
2025-11-21,0,10,49.06530605864768,119,142.536571321752,40,136,سعدية برقو,SAADIA DU BARGOU SM,سليانة,Siliana,الشمال الغربي,Nord-Ouest,36.035998,9.600219,0.00
2025-11-21,0,2,35.603528871688816,57,117.13703227652313,18,89,سد الأخماس,BARRAGE LAKHMES,سليانة,Siliana,الشمال الغربي,Nord-Ouest,36.074696,9.373423,0.00
2025-11-21,0,3,41.77199993729591,104,129.33400000110265,9,47,مكثر,MAKTAR PF,سليانة,Siliana,الشمال الغربي,Nord-Ouest,35.853203,9.204221,0.00
2025-11-21,0,1,52.775999996215106,28,136.72799999356266,31.799999999999997,80.19999999999999,تونس قرطاج,TUNIS CARTHAGE SM,تونس,Tunis,الشمال الشرقي,Nord-Est,36.834284,10.248223,0.00
2025-11-21,1,7.5,52.87799990385771,46.2,133.14200009435416,5.3,52.8,تونس المنوبية,TUNIS MANOUBIA,منوبة,Manouba,الشمال الشرقي,Nord-Est,36.784336,10.173078,0.00
2025-11-21,3,4,53.80200001418591,33,138.85800003886223,16,68,أريانة,ARIANA CENTRE D'ETUD,أريانة,Ariana,الشمال الشرقي,Nord-Est,36.848147,10.178561,0.00
2025-11-21,5,12,52.92553198369261,111,121.61620083368291,8,64,سيدي ثابت,SIDI THABET,أريانة,Ariana,الشمال الشرقي,Nord-Est,36.912718,10.041491,0.00
2025-11-21,7,10,61.84042559294625,66,139.2322975540431,58,144,قلعة الأندلس,Kalaat Andalos,أريانة,Ariana,الشمال الشرقي,Nord-Est,37.033000,10.114000,0.00
2025-11-21,2,12.5,47.504166692495346,55.5,122.95148813756191,10.5,86.5,منوبة,MANOUBA,منوبة,Manouba,الشمال الشرقي,Nord-Est,36.782991,10.077219,0.00
2025-11-21,0,1,42.56734696395543,66.5,118.73167345538127,10,116,برج العامري,BORJ EL AMRI,منوبة,Manouba,الشمال الشرقي,Nord-Est,36.715495,9.886868,0.00
2025-11-21,2,3,38.3120000204444,47,109.23861231779564,25,66,البطان,BATANE OMVVM,منوبة,Manouba,الشمال الشرقي,Nord-Est,36.796724,9.849985,0.00
2025-11-21,2,6.5,52.25399990543725,53.5,133.31399989604952,0,84.5,بن عروس,BEN AROUS MUNICIP.,بن عروس,Ben Arous,الشمال الشرقي,Nord-Est,36.720884,10.267123,0.00
2025-11-21,0,9,57.7812500364768,61,131.94227582053955,11,100,برج السدرية,BORJ CEDRIA,بن عروس,Ben Arous,الشمال الشرقي,Nord-Est,36.663282,10.328322,0.00
2025-11-21,0,12,47.944192004632775,59,134.0371505289177,19,96,الخليدية,EL KHELIDIA,بن عروس,Ben Arous,الشمال الشرقي,Nord-Est,36.637193,10.194221,0.00
2025-11-21,0,4,50.103755042519495,35.2,128.69975515257948,43.5,223,نابل,NABEUL SM,نابل,Nabeul,الشمال الشرقي,Nord-Est,36.443677,10.750420,0.00
2025-11-21,1,16.5,68.15999990403652,74,163.00273424772587,22.5,206,قليبية,KELIBIA SM,نابل,Nabeul,الشمال الشرقي,Nord-Est,36.855421,11.096021,0.00
2025-11-21,0,10,50.851020337975754,40,142.19799993099613,15,185,قربة,KORBA SM,نابل,Nabeul,الشمال الشرقي,Nord-Est,36.578677,10.859311,0.00
2025-11-21,0,4,63.729999993443485,31,149.7619999437034,37,154,منزل بوزلفة,MENZEL BOUZELFA,نابل,Nabeul,الشمال الشرقي,Nord-Est,36.681733,10.583916,0.00
2025-11-21,0,5,62.28599998354912,54.5,150.76991844281858,30,186,قرمبالية,GROMBALIA DRE,نابل,Nabeul,الشمال الشرقي,Nord-Est,36.578234,10.479524,0.00
2025-11-21,9,17.5,85.34651151923246,99.5,164.31627861774248,82.5,297,الهوارية,HAOUARIA DELEG  SM,نابل,Nabeul,الشمال الشرقي,Nord-Est,37.035877,11.012778,0.00
2025-11-21,0,5.5,55.959999951273204,35,148.54800004467373,54,174,الحمامات,HAMMAMET SM PF,نابل,Nabeul,الشمال الشرقي,Nord-Est,36.412631,10.603728,0.00
2025-11-21,0,4,48.80612251344993,52,136.25902065169447,88,269.5,زغوان,ZAGHOUAN,زغوان,Zaghouan,الشمال الشرقي,Nord-Est,36.397791,10.145620,0.00
2025-11-21,0,2,38.387499963243805,103.6,119.7171542538389,43,180,الفحص,PT DU FAHS SM,زغوان,Zaghouan,الشمال الشرقي,Nord-Est,36.352341,9.895514,0.00
2025-11-21,0,2.5,36.933999831676495,34,117.51163252742919,41,129.5,سد بئر مشارقة,BIR MECHARGA BGE,زغوان,Zaghouan,الشمال الشرقي,Nord-Est,36.509391,10.024123,0.00
2025-11-21,0,2,38.07321430737672,68,118.58830791235368,33,147,صواف,SAOUAF,زغوان,Zaghouan,الشمال الشرقي,Nord-Est,36.229041,10.174420,0.00
2025-11-21,0,0,36.20000005796552,52,106.54600000411273,0,64,الجبيبنة 3 النظور,DJEBIBINA YABSA(NADHOR),زغوان,Zaghouan,الشمال الشرقي,Nord-Est,36.114288,10.097478,0.00
2025-11-21,39,66.2,89.9000001746416,129.5,171.42420020744197,68.4,121.7,بنزرت سيدي أحمد,SIDI AHMED SM BIZERTE,بنزرت,Bizerte,الشمال الشرقي,Nord-Est,37.232990,9.782023,0.00
2025-11-21,24.5,42.5,84.61224492350405,155.7,154.39795924996832,41.5,108.4,تينجة,TINJA HER,بنزرت,Bizerte,الشمال الشرقي,Nord-Est,37.171789,9.757906,0.00
2025-11-21,21,41.5,86.70869566111462,134.2,158.70490281172883,52.8,87,راس الجبل,RAS JEBEL,بنزرت,Bizerte,الشمال الشرقي,Nord-Est,37.214993,10.126721,0.00
2025-11-21,30,45,68.2760627241615,207,125.96789969602717,37,140.5,العالية,EL ALIA SE,بنزرت,Bizerte,الشمال الشرقي,Nord-Est,37.166386,10.037618,0.00
2025-11-21,12,17.6,67.87600010886788,142.1,144.91800021663306,27,86,ماطر,SIDI MBAREK (MATEUR),بنزرت,Bizerte,الشمال الشرقي,Nord-Est,37.021497,9.663226,0.00
2025-11-21,30,61,89.82857149748173,113,168.844898056619,57,125,جومين,DJOUMIN DELEGATION,بنزرت,Bizerte,الشمال الشرقي,Nord-Est,36.926992,9.388721,0.00
2025-11-21,38,109.5,124.1380000579357,165.3,213.51693870488478,80,195.8,سجنان,SEJENANE DELG,بنزرت,Bizerte,الشمال الشرقي,Nord-Est,37.059741,9.246079,0.00
2025-11-21,0,0.6,26.908000009655943,47.4,104.51600011691453,10,120.6,القيروان,KAIROUAN SM,القيروان,Kairouan,الوسط الغربي,Centre-Ouest,35.675988,10.104229,0.00
2025-11-21,0,3,22.812195251627664,40.5,114.10243931885171,9.5,78.5,حفوز,HAFFOUZ DRE,القيروان,Kairouan,الوسط الغربي,Centre-Ouest,35.635497,9.676719,0.00
2025-11-21,0,0,26.67317077444821,37,94.8634145216244,41,137,سد نبهانة,NEBHANA BARRAGE,القيروان,Kairouan,الوسط الغربي,Centre-Ouest,35.392496,9.700119,0.00
2025-11-21,0,0,30.150000100800145,75.5,123.23191498615617,20,69.5,الوسلاتية,OUSLATIA INRAT,القيروان,Kairouan,الوسط الغربي,Centre-Ouest,35.774996,9.591225,0.00
2025-11-21,0,0,28.635999981462952,71,113.91000000819562,45.5,155.5,السبيخة,SBIKHA,القيروان,Kairouan,الوسط الغربي,Centre-Ouest,35.918093,10.035820,0.00
2025-11-21,0,0,22.021469411418146,35.5,85.17951025352185,35,86,سيدي عمر بوحجلة,SIDI AMOR BOUHAJLA,القيروان,Kairouan,الوسط الغربي,Centre-Ouest,35.395191,10.057861,0.00
2025-11-21,0,0.1,19.566000042855737,39.1,78.19600007846952,7.1,96.3,سد سيدي سعد,SIDI SAAD BARRAGE,القيروان,Kairouan,الوسط الغربي,Centre-Ouest,35.384036,9.694255,0.00
2025-11-21,0,3.6,19.29999993503094,86.5,84.43800001278522,5.5,99.5,القصرين,KASSERINE,القصرين,Kasserine,الوسط الغربي,Centre-Ouest,35.165694,8.826228,0.00
2025-11-21,0,7,21.785416735491406,73.5,88.74166669649999,17.5,88.5,فريانة,FERIANA SM,القصرين,Kasserine,الوسط الغربي,Centre-Ouest,34.947446,8.576477,0.00
2025-11-21,0,4.5,20.108510602661898,125,66.14903062037402,15.5,128.5,فوسانة,FOUSSANA,القصرين,Kasserine,الوسط الغربي,Centre-Ouest,35.351991,8.634512,0.00
2025-11-21,0,3.3,15.917999988943336,20.1,74.18399997368456,4.9,60.9,خنقة الزازية,KHANGUET ZAZIA,القصرين,Kasserine,الوسط الغربي,Centre-Ouest,35.090993,9.124563,0.00
2025-11-21,0,3.5,25.235555455585324,102.5,99.77888878456136,1,36,سبيبة,SBIBA VILLE SM,القصرين,Kasserine,الوسط الغربي,Centre-Ouest,35.228696,9.123125,0.00
2025-11-21,0,2,17.83600006058812,87,75.50400010630487,6,80,سبيطلة,SBEITLA  PAVA,القصرين,Kasserine,الوسط الغربي,Centre-Ouest,35.228696,9.123136,0.00
2025-11-21,0,1,37.968000009506945,61.1,111.0860000628233,0,63.5,تالة,TALA SM,القصرين,Kasserine,الوسط الغربي,Centre-Ouest,35.578792,8.670524,0.00
2025-11-21,0,2,21.465957408255722,73,94.42978719891384,67.5,164.2,سيدي بوزيد,SIDI BOUZID SM,سيدي بوزيد,Sidi Bouzid,الوسط الغربي,Centre-Ouest,34.964999,9.447219,0.00
2025-11-21,0,6,19.72127658794535,23,76.89224291111982,25,179,سيدي علي بن عون,SIDI ALI BEN AOUN,سيدي بوزيد,Sidi Bouzid,الوسط الغربي,Centre-Ouest,34.855194,9.142115,0.00
2025-11-21,0,5,19.979999991953374,37,81.02559188236997,61,165.3,بير الحفي,BIR LAHFAY,سيدي بوزيد,Sidi Bouzid,الوسط الغربي,Centre-Ouest,34.931245,9.196117,0.00
2025-11-21,0,0,15.056000000536441,9,66.95400005087255,2.5,67.5,المكناسي,MEKNASSY GR SM,سيدي بوزيد,Sidi Bouzid,الوسط الغربي,Centre-Ouest,34.919999,8.716511,0.00
2025-11-21,0,4,18.955555544959175,59.5,76.5787281959099,15.5,187.2,الرقاب,REGUEB SM DELEGATION,سيدي بوزيد,Sidi Bouzid,الوسط الغربي,Centre-Ouest,34.847997,9.789227,0.00
2025-11-21,0,1,18.719148917401093,40.5,76.53087154310569,0,82.3,جلمة,JELMA HER,سيدي بوزيد,Sidi Bouzid,الوسط الغربي,Centre-Ouest,35.270999,9.429225,0.00
2025-11-21,0,1.5,12.906249983857077,14,67.52792554422685,8,72,المزونة,MEZZOUNA DISPENSAIRE,سيدي بوزيد,Sidi Bouzid,الوسط الغربي,Centre-Ouest,34.575739,9.847000,0.00
2025-11-21,0,1,39.63469390023728,46,122.9265305460716,19,204,سوسة,SOUSSE PF,سوسة,Sousse,الوسط الشرقي,Centre-Est,35.828981,10.646020,0.00
2025-11-21,0,0,40.263265332397154,29,126.20959694906155,28,175,النفيضة,ENFIDA FORET,سوسة,Sousse,الوسط الشرقي,Centre-Est,36.133633,10.377370,0.00
2025-11-21,0,2,34.61836740374565,25,114.25004249949606,22.5,168.5,مساكن,MSAKEN DELG SM,سوسة,Sousse,الوسط الشرقي,Centre-Est,35.731787,10.577622,0.00
2025-11-21,0,0,42.78297867768622,23,118.20616143268819,18,218,سيدي بوعلي,SIDI BOU ALI,سوسة,Sousse,الوسط الشرقي,Centre-Est,35.957682,10.479071,0.00
2025-11-21,0,1.2,31.704255266392476,124.2,106.96574029964417,13,194.5,الكندار,KUNDAR,سوسة,Sousse,الوسط الشرقي,Centre-Est,35.949137,10.284220,0.00
2025-11-21,0,1,34.68888899270031,26,121.25939419376803,18,220,المنستير,SKANES MONASTIR  SM,المنستير,Monastir,الوسط الشرقي,Centre-Est,35.749873,10.753752,0.00
2025-11-21,0,1,46.23200009793043,51,140.69800024390221,15,296,المكنين,MOKNINE SM,المنستير,Monastir,الوسط الشرقي,Centre-Est,35.626034,10.716228,0.00
2025-11-21,0,1,47.96399999678134,23,138.79199986292392,17,261,طبلبة,TEBOULBA BNE VENNE I,المنستير,Monastir,الوسط الشرقي,Centre-Est,35.635477,10.779221,0.00
2025-11-21,0,3,44.194000003933915,22,139.53093886525653,27,209,جــمال,JEMMEL,المنستير,Monastir,الوسط الشرقي,Centre-Est,35.623779,10.763029,0.00
2025-11-21,0,1,39.37400004833937,20.6,129.77600017309192,9.2,257,المهدية,MAHDIA,المهدية,Mahdia,الوسط الشرقي,Centre-Est,35.518477,11.031220,0.00
2025-11-21,0,6,40.29565222496572,33,127.78661845444482,11,234,الشابة,CHEBBA MUNICIPALITE,المهدية,Mahdia,الوسط الشرقي,Centre-Est,35.237678,11.115822,0.00
2025-11-21,0,3,22.070833294807624,40,84.97210228184792,17,138,السواسي,SOUASSI,المهدية,Mahdia,الوسط الشرقي,Centre-Est,35.348563,10.544329,0.00
2025-11-21,0,1.5,31.779166597562536,25.2,103.98027471532873,24,170.7,الـــجم,EL JEM SM,المهدية,Mahdia,الوسط الشرقي,Centre-Est,35.296183,10.709476,0.00
2025-11-21,0,6,21.090000054836274,41,83.37199987709525,8,110.6,صفاقس,SFAX MAOU SM,صفاقس,Sfax,الوسط الشرقي,Centre-Est,34.716489,10.734221,0.00
2025-11-21,0,7,17.565999994277952,67.5,70.94228579920166,31,165.5,عقارب,AGAREB DELEGATION,صفاقس,Sfax,الوسط الشرقي,Centre-Est,34.740884,10.533074,0.00
2025-11-21,0,5,14.551999994516374,42,67.55000004321334,25,173,بير علي بن خليفة,BIR ALI BEN KHELIFA,صفاقس,Sfax,الوسط الشرقي,Centre-Est,34.737292,10.095218,0.00
2025-11-21,0,18,15.628888911339976,49.5,67.70048311272106,22.5,160.6,الغريبة,EL GHRAIBA,صفاقس,Sfax,الوسط الشرقي,Centre-Est,34.499686,10.221215,0.00
2025-11-21,0,0,23.346938775510203,28,82.61819727891157,16,133,قرقنة,KERKENEH MELLITTA,صفاقس,Sfax,الوسط الشرقي,Centre-Est,34.642780,11.029420,0.00
2025-11-21,0,4,16.349999984502794,19,74.29000005841259,9,134.5,منزل شاكر,MENZEL CHAKER,صفاقس,Sfax,الوسط الشرقي,Centre-Est,34.556840,10.313026,0.00
2025-11-21,0,4,26.45886526040152,16,94.04571951702742,4,185,الحنشة,HANCHA,صفاقس,Sfax,الوسط الشرقي,Centre-Est,35.122934,10.745022,0.00
2025-11-21,0,3,17.08600006580353,21.2,47.14199998021128,15,48,قفصة,GAFSA 1 SM,قفصة,Gafsa,الجنوب الغربي,Sud-Ouest,34.424999,8.799228,0.00
2025-11-21,0,1,13.858695639864258,69,40.53926911560006,30,87,القطار,EL GUETAR,قفصة,Gafsa,الجنوب الغربي,Sud-Ouest,34.334994,8.925215,0.00
2025-11-21,0,1,16.40000005163576,19,57.895652125873006,16,79.5,السند,ESSNED,قفصة,Gafsa,الجنوب الغربي,Sud-Ouest,34.546493,9.258217,0.00
2025-11-21,0,3,13.82173913101787,21,29.714009645476864,8,58,المنلوي,METLAOUI SM,قفصة,Gafsa,الجنوب الغربي,Sud-Ouest,34.316991,8.421221,0.00
2025-11-21,0,0,18.042857154849028,31,40.115194894244006,1,68.5,الرديف,MOULARES SM,قفصة,Gafsa,الجنوب الغربي,Sud-Ouest,34.361991,8.169228,0.00
2025-11-21,0,2,14.03913041042245,28,75.99328082069574,22,116,سيدي يعيش,REDEYEF  SM,قفصة,Gafsa,الجنوب الغربي,Sud-Ouest,34.710293,8.782128,0.00
2025-11-21,0,3,13.822916609700767,36,39.368528511299225,43.5,70.3,أم العرائس,SIDI AIECH,قفصة,Gafsa,الجنوب الغربي,Sud-Ouest,34.487989,8.295220,0.00
2025-11-21,0,3.5,10.916000046283004,12,25.657999990284438,0,39,توزر,TOZEUR SM,توزر,Tozeur,الجنوب الغربي,Sud-Ouest,32.925131,8.097222,0.00
2025-11-21,0,4.5,14.760000093777974,68.5,29.81814272668531,2.5,53,تمغزة,TAMEGHZA.GN,توزر,Tozeur,الجنوب الغربي,Sud-Ouest,34.379992,7.945848,0.00
2025-11-21,0,4,11.30888894399007,29,22.547584581501106,0,34.5,دقاش,DEGACHE MUNICIPALITE,توزر,Tozeur,الجنوب الغربي,Sud-Ouest,32.983992,8.239419,0.00
2025-11-21,0,3.5,11.968085119064819,20.5,24.020490299713877,0,34.5,نفطة,NEFTA,توزر,Tozeur,الجنوب الغربي,Sud-Ouest,32.859794,7.907325,0.00
2025-11-21,0,0,9.160465135823848,1,24.27764275583417,0,42,قبلي,KEBILI SE,قبلي,Kébili,الجنوب الغربي,Sud-Ouest,32.704992,8.979226,0.00
2025-11-21,0,1,7.867499973252414,9,19.391605716048556,0,0,الفوار,EL FAOUR DOUZ,قبلي,Kébili,الجنوب الغربي,Sud-Ouest,32.370194,8.668720,0.00
2025-11-21,0,8.5,7.482499976456165,14.5,22.450580706373806,0,44.8,دوز,DOUZ CRDA SM,قبلي,Kébili,الجنوب الغربي,Sud-Ouest,32.461996,9.024224,0.00
2025-11-21,0,1.5,22.302040843179036,15.5,77.26469359290232,0,81.5,قابس,GABES SM,قابس,Gabès,الجنوب الشرقي,Sud-Est,32.857991,10.108727,0.00
2025-11-21,0,0,10.212500013783576,14,43.739999931864425,0,46.5,الحامة,EL HAMMA PV,قابس,Gabès,الجنوب الشرقي,Sud-Est,32.844495,9.816229,0.00
2025-11-21,0,2,20.382051239793114,13,61.29743585353477,0,128,المطوية,METOUIA SM,قابس,Gabès,الجنوب الشرقي,Sud-Est,32.957894,10.036720,0.00
2025-11-21,0,15,22.157142834395778,28,53.80795923962884,0,56,مطماطة,MATMATA DELEGATION,قابس,Gabès,الجنوب الشرقي,Sud-Est,32.542987,9.987223,0.00
2025-11-21,0,14.8,16.955999945402144,23.4,50.91200025483966,0,60.599999999999994,مدنين,MEDENINE 1 SM,مدنين,Médenine,الجنوب الشرقي,Sud-Est,32.335986,10.500219,0.00
2025-11-21,0,3,21.300000068254594,13.5,50.99999991277371,0,42.8,بني خداش,BENI KHEDECHE,مدنين,Médenine,الجنوب الشرقي,Sud-Est,32.245991,10.203218,0.00
2025-11-21,0,0.8999999999999999,26.814285726267467,36.9,63.7393300188756,0,33.5,بن قردان,BEN GUERDANE 1 SM,مدنين,Médenine,الجنوب الشرقي,Sud-Est,32.160484,10.770229,0.00
2025-11-21,0,2.9,33.3224488680764,60.5,82.9892431957438,0,31,جرجيس,ZARZIS VILLE SE 2,مدنين,Médenine,الجنوب الشرقي,Sud-Est,32.497974,11.117350,0.00
2025-11-21,0,20,29.634000088721514,47.5,82.52669391723313,0,59.5,جربة حومة السوق,JERBA EL MAY SM,مدنين,Médenine,الجنوب الشرقي,Sud-Est,32.799485,10.887131,0.00
2025-11-21,0,0,12.316490513404503,9,30.261308277772812,0,72.6,تطاوين,TATAOUINE SM,تطاوين,Tataouine,الجنوب الشرقي,Sud-Est,32.927392,10.451446,0.00
2025-11-21,0,7,14.258139550685883,12,30.464582777362935,0,40.199999999999996,غمراسن,"GHOMRASSEN DELEG,",تطاوين,Tataouine,الجنوب الشرقي,Sud-Est,32.065988,10.347224,0.00
2025-11-21,0,0,7.592857174397934,1,22.403211549852674,0,30.7,رمادة,REMADA SM,تطاوين,Tataouine,الجنوب الشرقي,Sud-Est,32.315391,10.403298,0.00
2025-11-20,0.2,21,45.78666673815912,45.5,106.10444454153382,7.5,47.1,بوسالم,BOUSALEM DRE,جندوبة,Jendouba,الشمال الغربي,Nord-Ouest,36.599846,8.968515,0.00
2025-11-20,0,0,7.592857174397934,1,22.403211549852674,0,30.7,رمادة,REMADA SM,تطاوين,Tataouine,الجنوب الشرقي,Sud-Est,32.315391,10.403298,0.00
2025-11-20,7,7,14.258139550685883,12,30.27621068101291,0,40.199999999999996,غمراسن,"GHOMRASSEN DELEG,",تطاوين,Tataouine,الجنوب الشرقي,Sud-Est,32.065988,10.347224,0.00
2025-11-20,0,0,12.316490513404503,9,30.261308277772812,0,72.6,تطاوين,TATAOUINE SM,تطاوين,Tataouine,الجنوب الشرقي,Sud-Est,32.927392,10.451446,0.00
2025-11-20,18,20,29.634000088721514,47.5,82.14469392033257,0,59.5,جربة حومة السوق,JERBA EL MAY SM,مدنين,Médenine,الجنوب الشرقي,Sud-Est,32.799485,10.887131,0.00
2025-11-20,1.4,2.9,33.3224488680764,60.5,82.69944727640332,0,31,جرجيس,ZARZIS VILLE SE 2,مدنين,Médenine,الجنوب الشرقي,Sud-Est,32.497974,11.117350,0.00
2025-11-20,0.7,0.8999999999999999,26.814285726267467,36.9,63.433207569896005,0,33.5,بن قردان,BEN GUERDANE 1 SM,مدنين,Médenine,الجنوب الشرقي,Sud-Est,32.160484,10.770229,0.00
2025-11-20,3,3,21.300000068254594,13.5,50.24390235107121,0,42.8,بني خداش,BENI KHEDECHE,مدنين,Médenine,الجنوب الشرقي,Sud-Est,32.245991,10.203218,0.00
2025-11-20,9.8,14.8,16.955999945402144,23.4,50.762000257670884,0,60.599999999999994,مدنين,MEDENINE 1 SM,مدنين,Médenine,الجنوب الشرقي,Sud-Est,32.335986,10.500219,0.00
2025-11-20,5,15,22.157142834395778,28,53.256938831465575,0,56,مطماطة,MATMATA DELEGATION,قابس,Gabès,الجنوب الشرقي,Sud-Est,32.542987,9.987223,0.00
2025-11-20,2,2,20.382051239793114,13,61.29230764833015,0,128,المطوية,METOUIA SM,قابس,Gabès,الجنوب الشرقي,Sud-Est,32.957894,10.036720,0.00
2025-11-20,0,0,10.212500013783576,14,43.739999931864425,0,46.5,الحامة,EL HAMMA PV,قابس,Gabès,الجنوب الشرقي,Sud-Est,32.844495,9.816229,0.00
2025-11-20,0,1.5,22.302040843179036,15.5,77.26061196018844,0,81.5,قابس,GABES SM,قابس,Gabès,الجنوب الشرقي,Sud-Est,32.857991,10.108727,0.00
2025-11-20,6.5,8.5,7.482499976456165,14.5,22.400580706373805,0,44.8,دوز,DOUZ CRDA SM,قبلي,Kébili,الجنوب الغربي,Sud-Ouest,32.461996,9.024224,0.00
2025-11-20,0,1,7.867499973252414,9,19.159105711280183,0,0,الفوار,EL FAOUR DOUZ,قبلي,Kébili,الجنوب الغربي,Sud-Ouest,32.370194,8.668720,0.00
2025-11-20,0,0,9.160465135823848,1,24.26136368634396,0,42,قبلي,KEBILI SE,قبلي,Kébili,الجنوب الغربي,Sud-Ouest,32.704992,8.979226,0.00
2025-11-20,0,3.5,11.968085119064819,20.5,23.977937108224516,0,34.5,نفطة,NEFTA,توزر,Tozeur,الجنوب الغربي,Sud-Ouest,32.859794,7.907325,0.00
2025-11-20,0,4,11.30888894399007,29,22.436473470389995,0,34.5,دقاش,DEGACHE MUNICIPALITE,توزر,Tozeur,الجنوب الغربي,Sud-Ouest,32.983992,8.239419,0.00
2025-11-20,0,4.5,14.760000093777974,68.5,29.784809393351974,2.5,53,تمغزة,TAMEGHZA.GN,توزر,Tozeur,الجنوب الغربي,Sud-Ouest,34.379992,7.945848,0.00
2025-11-20,0,3.5,10.916000046283004,12,25.639999990463252,0,39,توزر,TOZEUR SM,توزر,Tozeur,الجنوب الغربي,Sud-Ouest,32.925131,8.097222,0.00
2025-11-20,0,3,13.822916609700767,36,39.32269517697248,43.5,70.3,أم العرائس,SIDI AIECH,قفصة,Gafsa,الجنوب الغربي,Sud-Ouest,34.487989,8.295220,0.00
2025-11-20,0,2,14.03913041042245,28,75.97154169026096,22,116,سيدي يعيش,REDEYEF  SM,قفصة,Gafsa,الجنوب الغربي,Sud-Ouest,34.710293,8.782128,0.00
2025-11-20,0,0,18.042857154849028,31,39.47233775138686,1,68.5,الرديف,MOULARES SM,قفصة,Gafsa,الجنوب الغربي,Sud-Ouest,34.361991,8.169228,0.00
2025-11-20,0,3,13.82173913101787,21,29.666183558455554,8,58,المنلوي,METLAOUI SM,قفصة,Gafsa,الجنوب الغربي,Sud-Ouest,34.316991,8.421221,0.00
2025-11-20,0,1,16.40000005163576,19,57.69999995195996,16,79.5,السند,ESSNED,قفصة,Gafsa,الجنوب الغربي,Sud-Ouest,34.546493,9.258217,0.00
2025-11-20,0,1,13.858695639864258,69,40.53926911560006,30,87,القطار,EL GUETAR,قفصة,Gafsa,الجنوب الغربي,Sud-Ouest,34.334994,8.925215,0.00
2025-11-20,0,3,17.08600006580353,21.2,47.031999982595465,15,48,قفصة,GAFSA 1 SM,قفصة,Gafsa,الجنوب الغربي,Sud-Ouest,34.424999,8.799228,0.00
2025-11-20,0,4,26.45886526040152,16,92.76912377234657,4,185,الحنشة,HANCHA,صفاقس,Sfax,الوسط الشرقي,Centre-Est,35.122934,10.745022,0.00
2025-11-20,0,4,16.349999984502794,19,74.2200000584126,9,134.5,منزل شاكر,MENZEL CHAKER,صفاقس,Sfax,الوسط الشرقي,Centre-Est,34.556840,10.313026,0.00
2025-11-20,0,0,23.346938775510203,28,82.53656462585035,16,133,قرقنة,KERKENEH MELLITTA,صفاقس,Sfax,الوسط الشرقي,Centre-Est,34.642780,11.029420,0.00
2025-11-20,0,18,15.628888911339976,49.5,67.3604831137807,22.5,160.6,الغريبة,EL GHRAIBA,صفاقس,Sfax,الوسط الشرقي,Centre-Est,34.499686,10.221215,0.00
2025-11-20,0,5,14.551999994516374,42,67.45400004178283,25,173,بير علي بن خليفة,BIR ALI BEN KHELIFA,صفاقس,Sfax,الوسط الشرقي,Centre-Est,34.737292,10.095218,0.00
2025-11-20,0,7,17.565999994277952,67.5,70.77828580301636,31,165.5,عقارب,AGAREB DELEGATION,صفاقس,Sfax,الوسط الشرقي,Centre-Est,34.740884,10.533074,0.00
2025-11-20,0,6,21.090000054836274,41,83.01999988377096,8,110.6,صفاقس,SFAX MAOU SM,صفاقس,Sfax,الوسط الشرقي,Centre-Est,34.716489,10.734221,0.00
2025-11-20,0,1.5,31.779166597562536,25.2,102.11152477890703,24,170.7,الـــجم,EL JEM SM,المهدية,Mahdia,الوسط الشرقي,Centre-Est,35.296183,10.709476,0.00
2025-11-20,0,3,22.070833294807624,40,84.37418562288019,17,138,السواسي,SOUASSI,المهدية,Mahdia,الوسط الشرقي,Centre-Est,35.348563,10.544329,0.00
2025-11-20,0,6,40.29565222496572,33,126.76487932401004,11,234,الشابة,CHEBBA MUNICIPALITE,المهدية,Mahdia,الوسط الشرقي,Centre-Est,35.237678,11.115822,0.00
2025-11-20,0,1,39.37400004833937,20.6,129.62200017213823,9.2,257,المهدية,MAHDIA,المهدية,Mahdia,الوسط الشرقي,Centre-Est,35.518477,11.031220,0.00
2025-11-20,0,3,44.194000003933915,22,139.50093886525653,27,209,جــمال,JEMMEL,المنستير,Monastir,الوسط الشرقي,Centre-Est,35.623779,10.763029,0.00
2025-11-20,0,1,47.96399999678134,23,138.72199986292392,17,261,طبلبة,TEBOULBA BNE VENNE I,المنستير,Monastir,الوسط الشرقي,Centre-Est,35.635477,10.779221,0.00
2025-11-20,0,1,46.23200009793043,51,140.6680002439022,15,296,المكنين,MOKNINE SM,المنستير,Monastir,الوسط الشرقي,Centre-Est,35.626034,10.716228,0.00
2025-11-20,0,1,34.68888899270031,26,120.29494974720431,18,220,المنستير,SKANES MONASTIR  SM,المنستير,Monastir,الوسط الشرقي,Centre-Est,35.749873,10.753752,0.00
2025-11-20,0,1.2,31.704255266392476,124.2,106.65722966134629,13,194.5,الكندار,KUNDAR,سوسة,Sousse,الوسط الشرقي,Centre-Est,35.949137,10.284220,0.00
2025-11-20,0,0,42.78297867768622,23,117.6316933475818,18,218,سيدي بوعلي,SIDI BOU ALI,سوسة,Sousse,الوسط الشرقي,Centre-Est,35.957682,10.479071,0.00
2025-11-20,0,2,34.61836740374565,25,114.17861392806749,22.5,168.5,مساكن,MSAKEN DELG SM,سوسة,Sousse,الوسط الشرقي,Centre-Est,35.731787,10.577622,0.00
